{
"type": "FeatureCollection",
"name": "bahnhoefe_zh",
"crs": { "type": "name", "properties": { "name": "urn:ogc:def:crs:OGC:1.3:CRS84" } },
"features": [
{ "type": "Feature", "properties": { "element": "node", "id": 27580759, "name": "Waldburg", "railway": "station" }, "geometry": { "type": "Point", "coordinates": [ 8.593096908451239, 47.345489210139085 ] } },
{ "type": "Feature", "properties": { "element": "node", "id": 27580765, "name": "Spital Zollikerberg", "railway": "station" }, "geometry": { "type": "Point", "coordinates": [ 8.597061108454497, 47.347331010138554 ] } },
{ "type": "Feature", "properties": { "element": "node", "id": 29542965, "name": "Central Polybahn", "railway": "station" }, "geometry": { "type": "Point", "coordinates": [ 8.544172008394181, 47.37651831016327 ] } },
{ "type": "Feature", "properties": { "element": "node", "id": 29542967, "name": "Polyterrasse ETH", "railway": "station" }, "geometry": { "type": "Point", "coordinates": [ 8.546320708396166, 47.376832110162766 ] } },
{ "type": "Feature", "properties": { "element": "node", "id": 36258964, "name": "Bergstation Dolderbahn", "railway": "station" }, "geometry": { "type": "Point", "coordinates": [ 8.574637108424765, 47.373169910153393 ] } },
{ "type": "Feature", "properties": { "element": "node", "id": 102387395, "name": "Rigiblick", "railway": "station" }, "geometry": { "type": "Point", "coordinates": [ 8.553336208399717, 47.387330110164143 ] } },
{ "type": "Feature", "properties": { "element": "node", "id": 130246905, "name": "Seilbahn Rigiblick", "railway": "station" }, "geometry": { "type": "Point", "coordinates": [ 8.548947408395909, 47.385883810164934 ] } },
{ "type": "Feature", "properties": { "element": "node", "id": 307391788, "name": "Elgg", "railway": "station" }, "geometry": { "type": "Point", "coordinates": [ 8.863330308660347, 47.498479410106818 ] } },
{ "type": "Feature", "properties": { "element": "node", "id": 762194590, "name": "Bauma", "railway": "station" }, "geometry": { "type": "Point", "coordinates": [ 8.878214008716709, 47.368818910062195 ] } },
{ "type": "Feature", "properties": { "element": "node", "id": 984762323, "name": "Neuhaus bei Hinteregg", "railway": "station" }, "geometry": { "type": "Point", "coordinates": [ 8.674160808539746, 47.312723310104687 ] } },
{ "type": "Feature", "properties": { "element": "node", "id": 1060554622, "name": "Römerhof", "railway": "station" }, "geometry": { "type": "Point", "coordinates": [ 8.560866708412878, 47.368443710155901 ] } },
{ "type": "Feature", "properties": { "element": "node", "id": 1189482494, "name": "Zürich Oerlikon", "railway": "station" }, "geometry": { "type": "Point", "coordinates": [ 8.544150708383297, 47.411498610174455 ] } },
{ "type": "Feature", "properties": { "element": "node", "id": 1191403583, "name": "Dock E", "railway": "station" }, "geometry": { "type": "Point", "coordinates": [ 8.555049508378316, 47.461158210186859 ] } },
{ "type": "Feature", "properties": { "element": "node", "id": 1219787004, "name": "Dietikon", "railway": "station" }, "geometry": { "type": "Point", "coordinates": [ 8.404922008249327, 47.405805010212653 ] } },
{ "type": "Feature", "properties": { "element": "node", "id": 1231420538, "name": "Zürich Hardbrücke", "railway": "station" }, "geometry": { "type": "Point", "coordinates": [ 8.517392608365483, 47.385160910173781 ] } },
{ "type": "Feature", "properties": { "element": "node", "id": 1236383343, "name": "Zürich Hauptbahnhof", "railway": "station" }, "geometry": { "type": "Point", "coordinates": [ 8.539363508389018, 47.378100810165186 ] } },
{ "type": "Feature", "properties": { "element": "node", "id": 1239733410, "name": "Zürich Stadelhofen", "railway": "station" }, "geometry": { "type": "Point", "coordinates": [ 8.548385808401349, 47.366564310158864 ] } },
{ "type": "Feature", "properties": { "element": "node", "id": 1239941343, "name": "Stettbach", "railway": "station" }, "geometry": { "type": "Point", "coordinates": [ 8.596107408438057, 47.39715221015485 ] } },
{ "type": "Feature", "properties": { "element": "node", "id": 1240218104, "name": "Wallisellen", "railway": "station" }, "geometry": { "type": "Point", "coordinates": [ 8.592379708429615, 47.412625010160852 ] } },
{ "type": "Feature", "properties": { "element": "node", "id": 1240254898, "name": "Opfikon", "railway": "station" }, "geometry": { "type": "Point", "coordinates": [ 8.561812908394641, 47.42995071017517 ] } },
{ "type": "Feature", "properties": { "element": "node", "id": 1240260092, "name": "Zürich Flughafen", "railway": "station" }, "geometry": { "type": "Point", "coordinates": [ 8.561898508388404, 47.45009781018144 ] } },
{ "type": "Feature", "properties": { "element": "node", "id": 1240269753, "name": "Kloten", "railway": "station" }, "geometry": { "type": "Point", "coordinates": [ 8.583767808409977, 47.448658110174648 ] } },
{ "type": "Feature", "properties": { "element": "node", "id": 1240277150, "name": "Bassersdorf", "railway": "station" }, "geometry": { "type": "Point", "coordinates": [ 8.626439108454264, 47.438595810159022 ] } },
{ "type": "Feature", "properties": { "element": "node", "id": 1240354282, "name": "Dietlikon", "railway": "station" }, "geometry": { "type": "Point", "coordinates": [ 8.61919820845311, 47.420183710155385 ] } },
{ "type": "Feature", "properties": { "element": "node", "id": 1241005663, "name": "Effretikon", "railway": "station" }, "geometry": { "type": "Point", "coordinates": [ 8.687008608516487, 47.425747210137175 ] } },
{ "type": "Feature", "properties": { "element": "node", "id": 1241075021, "name": "Kemptthal", "railway": "station" }, "geometry": { "type": "Point", "coordinates": [ 8.705807508525814, 47.452851710140081 ] } },
{ "type": "Feature", "properties": { "element": "node", "id": 1246649935, "name": "Illnau", "railway": "station" }, "geometry": { "type": "Point", "coordinates": [ 8.722707108556012, 47.408884910121373 ] } },
{ "type": "Feature", "properties": { "element": "node", "id": 1246927285, "name": "Fehraltorf", "railway": "station" }, "geometry": { "type": "Point", "coordinates": [ 8.750030708589678, 47.385153010105789 ] } },
{ "type": "Feature", "properties": { "element": "node", "id": 1247061685, "name": "Pfäffikon", "railway": "station" }, "geometry": { "type": "Point", "coordinates": [ 8.784707308628517, 47.367100210089689 ] } },
{ "type": "Feature", "properties": { "element": "node", "id": 1247149601, "name": "Kempten", "railway": "station" }, "geometry": { "type": "Point", "coordinates": [ 8.804771608658807, 47.332030910072383 ] } },
{ "type": "Feature", "properties": { "element": "node", "id": 1247229579, "name": "Wetzikon ZH", "railway": "station" }, "geometry": { "type": "Point", "coordinates": [ 8.79226630865131, 47.318093110071523 ] } },
{ "type": "Feature", "properties": { "element": "node", "id": 1247695897, "name": "Aathal", "railway": "station" }, "geometry": { "type": "Point", "coordinates": [ 8.766278108620922, 47.335675210085014 ] } },
{ "type": "Feature", "properties": { "element": "node", "id": 1248313818, "name": "Uster", "railway": "station" }, "geometry": { "type": "Point", "coordinates": [ 8.717933408569863, 47.350812510104269 ] } },
{ "type": "Feature", "properties": { "element": "node", "id": 1248429948, "name": "Schwerzenbach", "railway": "station" }, "geometry": { "type": "Point", "coordinates": [ 8.658700908502389, 47.384434310132491 ] } },
{ "type": "Feature", "properties": { "element": "node", "id": 1248535234, "name": "Dübendorf", "railway": "station" }, "geometry": { "type": "Point", "coordinates": [ 8.623400608463481, 47.400053810147796 ] } },
{ "type": "Feature", "properties": { "element": "node", "id": 1261444104, "name": "Zürich Selnau", "railway": "station" }, "geometry": { "type": "Point", "coordinates": [ 8.53185560838347, 47.372469510165544 ] } },
{ "type": "Feature", "properties": { "element": "node", "id": 1261444152, "name": "Zürich Binz", "railway": "station" }, "geometry": { "type": "Point", "coordinates": [ 8.518085408373036, 47.362847310166444 ] } },
{ "type": "Feature", "properties": { "element": "node", "id": 1261981415, "name": "Zürich Triemli", "railway": "station" }, "geometry": { "type": "Point", "coordinates": [ 8.495349808350229, 47.364974110173627 ] } },
{ "type": "Feature", "properties": { "element": "node", "id": 1262073820, "name": "Ringlikon", "railway": "station" }, "geometry": { "type": "Point", "coordinates": [ 8.477376108334143, 47.360255010177298 ] } },
{ "type": "Feature", "properties": { "element": "node", "id": 1262086033, "name": "Uetliberg", "railway": "station" }, "geometry": { "type": "Point", "coordinates": [ 8.487418708346512, 47.351869210171714 ] } },
{ "type": "Feature", "properties": { "element": "node", "id": 1264771132, "name": "Zürich Giesshübel", "railway": "station" }, "geometry": { "type": "Point", "coordinates": [ 8.522014908376931, 47.362608310165193 ] } },
{ "type": "Feature", "properties": { "element": "node", "id": 1264808495, "name": "Zürich Saalsporthalle", "railway": "station" }, "geometry": { "type": "Point", "coordinates": [ 8.521833908378172, 47.358006710163799 ] } },
{ "type": "Feature", "properties": { "element": "node", "id": 1264882620, "name": "Zürich Brunau", "railway": "station" }, "geometry": { "type": "Point", "coordinates": [ 8.526223308384417, 47.351597610160432 ] } },
{ "type": "Feature", "properties": { "element": "node", "id": 1265011513, "name": "Zürich Leimbach", "railway": "station" }, "geometry": { "type": "Point", "coordinates": [ 8.518726708382804, 47.333073410156572 ] } },
{ "type": "Feature", "properties": { "element": "node", "id": 1265111168, "name": "Adliswil", "railway": "station" }, "geometry": { "type": "Point", "coordinates": [ 8.52408200839438, 47.312307210148099 ] } },
{ "type": "Feature", "properties": { "element": "node", "id": 1265471983, "name": "Sihlwald", "railway": "station" }, "geometry": { "type": "Point", "coordinates": [ 8.557628308440497, 47.26832351012375 ] } },
{ "type": "Feature", "properties": { "element": "node", "id": 1265472081, "name": "Langnau-Gattikon", "railway": "station" }, "geometry": { "type": "Point", "coordinates": [ 8.543988508421378, 47.287435810134134 ] } },
{ "type": "Feature", "properties": { "element": "node", "id": 1270323047, "name": "Zürich Wiedikon", "railway": "station" }, "geometry": { "type": "Point", "coordinates": [ 8.523064808375153, 47.371711710167887 ] } },
{ "type": "Feature", "properties": { "element": "node", "id": 1270614835, "name": "Zürich Enge", "railway": "station" }, "geometry": { "type": "Point", "coordinates": [ 8.530760508384958, 47.364183310163206 ] } },
{ "type": "Feature", "properties": { "element": "node", "id": 1273164743, "name": "Oberrieden Dorf", "railway": "station" }, "geometry": { "type": "Point", "coordinates": [ 8.577557108457295, 47.276842010120895 ] } },
{ "type": "Feature", "properties": { "element": "node", "id": 1273321595, "name": "Horgen Oberdorf", "railway": "station" }, "geometry": { "type": "Point", "coordinates": [ 8.590002508474962, 47.258669210111115 ] } },
{ "type": "Feature", "properties": { "element": "node", "id": 1286602751, "name": "Winterthur", "railway": "station" }, "geometry": { "type": "Point", "coordinates": [ 8.723973608527855, 47.50031381014913 ] } },
{ "type": "Feature", "properties": { "element": "node", "id": 1291611923, "name": "Zürich Tiefenbrunnen", "railway": "station" }, "geometry": { "type": "Point", "coordinates": [ 8.561341508419014, 47.35011721014984 ] } },
{ "type": "Feature", "properties": { "element": "node", "id": 1293202658, "name": "Zürich Seebach", "railway": "station" }, "geometry": { "type": "Point", "coordinates": [ 8.544218608381154, 47.418587210176703 ] } },
{ "type": "Feature", "properties": { "element": "node", "id": 1293232953, "name": "Zürich Affoltern", "railway": "station" }, "geometry": { "type": "Point", "coordinates": [ 8.508177208345462, 47.420900710187816 ] } },
{ "type": "Feature", "properties": { "element": "node", "id": 1295126213, "name": "Regensdorf-Watt", "railway": "station" }, "geometry": { "type": "Point", "coordinates": [ 8.472264608305723, 47.436399710203055 ] } },
{ "type": "Feature", "properties": { "element": "node", "id": 1295286856, "name": "Buchs-Dällikon", "railway": "station" }, "geometry": { "type": "Point", "coordinates": [ 8.437305808266428, 47.453281810218378 ] } },
{ "type": "Feature", "properties": { "element": "node", "id": 1295889766, "name": "Otelfingen", "railway": "station" }, "geometry": { "type": "Point", "coordinates": [ 8.388257808217952, 47.45499681023292 ] } },
{ "type": "Feature", "properties": { "element": "node", "id": 1300628760, "name": "Zollikon", "railway": "station" }, "geometry": { "type": "Point", "coordinates": [ 8.569492108430858, 47.337368310143276 ] } },
{ "type": "Feature", "properties": { "element": "node", "id": 1300646901, "name": "Küsnacht Goldbach", "railway": "station" }, "geometry": { "type": "Point", "coordinates": [ 8.575747408440177, 47.326847410138015 ] } },
{ "type": "Feature", "properties": { "element": "node", "id": 1300717238, "name": "Küsnacht ZH", "railway": "station" }, "geometry": { "type": "Point", "coordinates": [ 8.580556108447228, 47.319124610134082 ] } },
{ "type": "Feature", "properties": { "element": "node", "id": 1305029643, "name": "Erlenbach ZH", "railway": "station" }, "geometry": { "type": "Point", "coordinates": [ 8.591461708461926, 47.305769310126522 ] } },
{ "type": "Feature", "properties": { "element": "node", "id": 1305115032, "name": "Winkel", "railway": "station" }, "geometry": { "type": "Point", "coordinates": [ 8.5989470084718, 47.297289010121517 ] } },
{ "type": "Feature", "properties": { "element": "node", "id": 1305607315, "name": "Herrliberg-Feldmeilen", "railway": "station" }, "geometry": { "type": "Point", "coordinates": [ 8.612689708489899, 47.281797410112382 ] } },
{ "type": "Feature", "properties": { "element": "node", "id": 1305660372, "name": "Meilen", "railway": "station" }, "geometry": { "type": "Point", "coordinates": [ 8.64420220852417, 47.269645110099084 ] } },
{ "type": "Feature", "properties": { "element": "node", "id": 1305717852, "name": "Uetikon", "railway": "station" }, "geometry": { "type": "Point", "coordinates": [ 8.678875608560935, 47.259137910085457 ] } },
{ "type": "Feature", "properties": { "element": "node", "id": 1309502573, "name": "Winterthur Grüze", "railway": "station" }, "geometry": { "type": "Point", "coordinates": [ 8.750865308553834, 47.499052810140753 ] } },
{ "type": "Feature", "properties": { "element": "node", "id": 1310783650, "name": "Winterthur Seen", "railway": "station" }, "geometry": { "type": "Point", "coordinates": [ 8.766753308572691, 47.487431410132473 ] } },
{ "type": "Feature", "properties": { "element": "node", "id": 1311007154, "name": "Oberwinterthur", "railway": "station" }, "geometry": { "type": "Point", "coordinates": [ 8.760115408559813, 47.507672910140606 ] } },
{ "type": "Feature", "properties": { "element": "node", "id": 1313973484, "name": "Seuzach", "railway": "station" }, "geometry": { "type": "Point", "coordinates": [ 8.739021908530686, 47.535639310155211 ] } },
{ "type": "Feature", "properties": { "element": "node", "id": 1317308966, "name": "Dachsen", "railway": "station" }, "geometry": { "type": "Point", "coordinates": [ 8.613878108368713, 47.667080210229976 ] } },
{ "type": "Feature", "properties": { "element": "node", "id": 1317339977, "name": "Marthalen", "railway": "station" }, "geometry": { "type": "Point", "coordinates": [ 8.656069308420626, 47.631222710207453 ] } },
{ "type": "Feature", "properties": { "element": "node", "id": 1317354601, "name": "Andelfingen", "railway": "station" }, "geometry": { "type": "Point", "coordinates": [ 8.677901308453636, 47.593770210190307 ] } },
{ "type": "Feature", "properties": { "element": "node", "id": 1317425466, "name": "Henggart", "railway": "station" }, "geometry": { "type": "Point", "coordinates": [ 8.685034308469966, 47.56450051017972 ] } },
{ "type": "Feature", "properties": { "element": "node", "id": 1317463581, "name": "Hettlingen", "railway": "station" }, "geometry": { "type": "Point", "coordinates": [ 8.694765208485446, 47.545354610171231 ] } },
{ "type": "Feature", "properties": { "element": "node", "id": 1319059823, "name": "Birmensdorf", "railway": "station" }, "geometry": { "type": "Point", "coordinates": [ 8.43739210829588, 47.357448010187817 ] } },
{ "type": "Feature", "properties": { "element": "node", "id": 1321496221, "name": "Glattbrugg", "railway": "station" }, "geometry": { "type": "Point", "coordinates": [ 8.558929108391567, 47.430852610176323 ] } },
{ "type": "Feature", "properties": { "element": "node", "id": 1321840643, "name": "Rümlang", "railway": "station" }, "geometry": { "type": "Point", "coordinates": [ 8.532677708358891, 47.454067910191149 ] } },
{ "type": "Feature", "properties": { "element": "node", "id": 1327631013, "name": "Oberglatt", "railway": "station" }, "geometry": { "type": "Point", "coordinates": [ 8.510537008332323, 47.470417210202619 ] } },
{ "type": "Feature", "properties": { "element": "node", "id": 1328354702, "name": "Dielsdorf", "railway": "station" }, "geometry": { "type": "Point", "coordinates": [ 8.459367808278888, 47.48241411022105 ] } },
{ "type": "Feature", "properties": { "element": "node", "id": 1328512534, "name": "Niederweningen", "railway": "station" }, "geometry": { "type": "Point", "coordinates": [ 8.369422908182175, 47.511345810255662 ] } },
{ "type": "Feature", "properties": { "element": "node", "id": 1329658757, "name": "Niederglatt", "railway": "station" }, "geometry": { "type": "Point", "coordinates": [ 8.503190408319856, 47.487476910210006 ] } },
{ "type": "Feature", "properties": { "element": "node", "id": 1329773238, "name": "Bülach", "railway": "station" }, "geometry": { "type": "Point", "coordinates": [ 8.536554608340699, 47.523773410211298 ] } },
{ "type": "Feature", "properties": { "element": "node", "id": 1330470648, "name": "Embrach-Rorbas", "railway": "station" }, "geometry": { "type": "Point", "coordinates": [ 8.587021508390334, 47.520559510195625 ] } },
{ "type": "Feature", "properties": { "element": "node", "id": 1330676298, "name": "Winterthur Wülflingen", "railway": "station" }, "geometry": { "type": "Point", "coordinates": [ 8.680964308484866, 47.506459910163777 ] } },
{ "type": "Feature", "properties": { "element": "node", "id": 1330704266, "name": "Winterthur Töss", "railway": "station" }, "geometry": { "type": "Point", "coordinates": [ 8.709279808517261, 47.489774710150321 ] } },
{ "type": "Feature", "properties": { "element": "node", "id": 1345694391, "name": "Au", "railway": "station" }, "geometry": { "type": "Point", "coordinates": [ 8.643648708530664, 47.246789610091504 ] } },
{ "type": "Feature", "properties": { "element": "node", "id": 1345880152, "name": "Richterswil", "railway": "station" }, "geometry": { "type": "Point", "coordinates": [ 8.707481908604162, 47.208552010059812 ] } },
{ "type": "Feature", "properties": { "element": "node", "id": 1348076004, "name": "Stäfa", "railway": "station" }, "geometry": { "type": "Point", "coordinates": [ 8.721640808607955, 47.24047151006657 ] } },
{ "type": "Feature", "properties": { "element": "node", "id": 1348149623, "name": "Uerikon", "railway": "station" }, "geometry": { "type": "Point", "coordinates": [ 8.752621608639169, 47.235898310055873 ] } },
{ "type": "Feature", "properties": { "element": "node", "id": 1348193962, "name": "Feldbach", "railway": "station" }, "geometry": { "type": "Point", "coordinates": [ 8.783068808667368, 47.239170810048002 ] } },
{ "type": "Feature", "properties": { "element": "node", "id": 1351838924, "name": "Räterschen", "railway": "station" }, "geometry": { "type": "Point", "coordinates": [ 8.795149308595908, 47.498776010127429 ] } },
{ "type": "Feature", "properties": { "element": "node", "id": 1351877724, "name": "Schottikon", "railway": "station" }, "geometry": { "type": "Point", "coordinates": [ 8.811736908611161, 47.500103110122815 ] } },
{ "type": "Feature", "properties": { "element": "node", "id": 1352668875, "name": "Rikon", "railway": "station" }, "geometry": { "type": "Point", "coordinates": [ 8.79643930861462, 47.445007910110668 ] } },
{ "type": "Feature", "properties": { "element": "node", "id": 1352757256, "name": "Wiesendangen", "railway": "station" }, "geometry": { "type": "Point", "coordinates": [ 8.776019608569058, 47.525530710141147 ] } },
{ "type": "Feature", "properties": { "element": "node", "id": 1352769914, "name": "Rickenbach-Attikon", "railway": "station" }, "geometry": { "type": "Point", "coordinates": [ 8.789034708578143, 47.535373310140159 ] } },
{ "type": "Feature", "properties": { "element": "node", "id": 1353867068, "name": "Glattfelden", "railway": "station" }, "geometry": { "type": "Point", "coordinates": [ 8.523961408320506, 47.549116810222515 ] } },
{ "type": "Feature", "properties": { "element": "node", "id": 1353944373, "name": "Eglisau", "railway": "station" }, "geometry": { "type": "Point", "coordinates": [ 8.516525708305922, 47.572436010231513 ] } },
{ "type": "Feature", "properties": { "element": "node", "id": 1354055720, "name": "Hüntwangen-Wil", "railway": "station" }, "geometry": { "type": "Point", "coordinates": [ 8.512679408299419, 47.581188610235166 ] } },
{ "type": "Feature", "properties": { "element": "node", "id": 1354086304, "name": "Rafz", "railway": "station" }, "geometry": { "type": "Point", "coordinates": [ 8.543352308321721, 47.603812510232821 ] } },
{ "type": "Feature", "properties": { "element": "node", "id": 1492349416, "name": "Egg", "railway": "station" }, "geometry": { "type": "Point", "coordinates": [ 8.689636908558107, 47.30163661009648 ] } },
{ "type": "Feature", "properties": { "element": "node", "id": 1492349431, "name": "Hinteregg", "railway": "station" }, "geometry": { "type": "Point", "coordinates": [ 8.684208008551581, 47.30579171009942 ] } },
{ "type": "Feature", "properties": { "element": "node", "id": 2132037878, "name": "Zumikon", "railway": "station" }, "geometry": { "type": "Point", "coordinates": [ 8.623614008484928, 47.332065910125806 ] } },
{ "type": "Feature", "properties": { "element": "node", "id": 2132070272, "name": "Forch", "railway": "station" }, "geometry": { "type": "Point", "coordinates": [ 8.648089308510706, 47.325223210116427 ] } },
{ "type": "Feature", "properties": { "element": "node", "id": 2132070273, "name": "Maiacher", "railway": "station" }, "geometry": { "type": "Point", "coordinates": [ 8.631212108493484, 47.328167410122298 ] } },
{ "type": "Feature", "properties": { "element": "node", "id": 2132070275, "name": "Scheuren", "railway": "station" }, "geometry": { "type": "Point", "coordinates": [ 8.659596308522653, 47.322508610112159 ] } },
{ "type": "Feature", "properties": { "element": "node", "id": 2132070280, "name": "Neue Forch", "railway": "station" }, "geometry": { "type": "Point", "coordinates": [ 8.63793330850072, 47.325776310119551 ] } },
{ "type": "Feature", "properties": { "element": "node", "id": 2141115746, "name": "Fischenthal", "railway": "station" }, "geometry": { "type": "Point", "coordinates": [ 8.92328960877072, 47.333419210037221 ] } },
{ "type": "Feature", "properties": { "element": "node", "id": 2141146352, "name": "Wald ZH", "railway": "station" }, "geometry": { "type": "Point", "coordinates": [ 8.913961608781422, 47.272726810020153 ] } },
{ "type": "Feature", "properties": { "element": "node", "id": 2291723099, "name": "Otelfingen Golfpark", "railway": "station" }, "geometry": { "type": "Point", "coordinates": [ 8.402099308231252, 47.455812210229219 ] } },
{ "type": "Feature", "properties": { "element": "node", "id": 2412401899, "name": "Männedorf", "railway": "station" }, "geometry": { "type": "Point", "coordinates": [ 8.692761508576146, 47.253289710079414 ] } },
{ "type": "Feature", "properties": { "element": "node", "id": 2414247964, "name": "Bubikon", "railway": "station" }, "geometry": { "type": "Point", "coordinates": [ 8.82267550869528, 47.270839410046896 ] } },
{ "type": "Feature", "properties": { "element": "node", "id": 2414295811, "name": "Hinwil", "railway": "station" }, "geometry": { "type": "Point", "coordinates": [ 8.839760308702287, 47.300089210051453 ] } },
{ "type": "Feature", "properties": { "element": "node", "id": 2425891024, "name": "Zweidlen", "railway": "station" }, "geometry": { "type": "Point", "coordinates": [ 8.467919908259587, 47.570425910245028 ] } },
{ "type": "Feature", "properties": { "element": "node", "id": 2443368760, "name": "Saland", "railway": "station" }, "geometry": { "type": "Point", "coordinates": [ 8.854231308685794, 47.394258210077489 ] } },
{ "type": "Feature", "properties": { "element": "node", "id": 2446048209, "name": "Turbenthal", "railway": "station" }, "geometry": { "type": "Point", "coordinates": [ 8.843932708662084, 47.437314910094024 ] } },
{ "type": "Feature", "properties": { "element": "node", "id": 2446055623, "name": "Wila", "railway": "station" }, "geometry": { "type": "Point", "coordinates": [ 8.848537808672786, 47.417783410086592 ] } },
{ "type": "Feature", "properties": { "element": "node", "id": 2453133359, "name": "Thalheim-Altikon", "railway": "station" }, "geometry": { "type": "Point", "coordinates": [ 8.757659308537242, 47.569568310159546 ] } },
{ "type": "Feature", "properties": { "element": "node", "id": 2455946411, "name": "Ossingen", "railway": "station" }, "geometry": { "type": "Point", "coordinates": [ 8.724097808490654, 47.614592910182566 ] } },
{ "type": "Feature", "properties": { "element": "node", "id": 2456031550, "name": "Stammheim", "railway": "station" }, "geometry": { "type": "Point", "coordinates": [ 8.788841408545059, 47.634833310168794 ] } },
{ "type": "Feature", "properties": { "element": "node", "id": 2475026135, "name": "Feuerthalen", "railway": "station" }, "geometry": { "type": "Point", "coordinates": [ 8.645936808390966, 47.692149010227411 ] } },
{ "type": "Feature", "properties": { "element": "node", "id": 2482900821, "name": "Pfungen", "railway": "station" }, "geometry": { "type": "Point", "coordinates": [ 8.646686208449005, 47.516077410176763 ] } },
{ "type": "Feature", "properties": { "element": "node", "id": 3074774947, "name": "Samstagern", "railway": "station" }, "geometry": { "type": "Point", "coordinates": [ 8.686008108588616, 47.191601710060219 ] } },
{ "type": "Feature", "properties": { "element": "node", "id": 3074886740, "name": "Kilchberg", "railway": "station" }, "geometry": { "type": "Point", "coordinates": [ 8.548057808414001, 47.324475210145252 ] } },
{ "type": "Feature", "properties": { "element": "node", "id": 3074886742, "name": "Oberrieden", "railway": "station" }, "geometry": { "type": "Point", "coordinates": [ 8.578410708457266, 47.279664110121573 ] } },
{ "type": "Feature", "properties": { "element": "node", "id": 3080372075, "name": "Affoltern am Albis", "railway": "station" }, "geometry": { "type": "Point", "coordinates": [ 8.446804408329685, 47.276170110158169 ] } },
{ "type": "Feature", "properties": { "element": "node", "id": 3080372080, "name": "Bonstetten-Wettswil", "railway": "station" }, "geometry": { "type": "Point", "coordinates": [ 8.468243308335706, 47.325814510168584 ] } },
{ "type": "Feature", "properties": { "element": "node", "id": 3080372082, "name": "Burghalden", "railway": "station" }, "geometry": { "type": "Point", "coordinates": [ 8.69284840858999, 47.208665910064141 ] } },
{ "type": "Feature", "properties": { "element": "node", "id": 3080372089, "name": "Hedingen", "railway": "station" }, "geometry": { "type": "Point", "coordinates": [ 8.445997608322079, 47.298809710166019 ] } },
{ "type": "Feature", "properties": { "element": "node", "id": 3080372090, "name": "Horgen", "railway": "station" }, "geometry": { "type": "Point", "coordinates": [ 8.596894308480808, 47.261456410110085 ] } },
{ "type": "Feature", "properties": { "element": "node", "id": 3080372093, "name": "Knonau", "railway": "station" }, "geometry": { "type": "Point", "coordinates": [ 8.466735208366027, 47.220266210133389 ] } },
{ "type": "Feature", "properties": { "element": "node", "id": 3080372097, "name": "Rüschlikon", "railway": "station" }, "geometry": { "type": "Point", "coordinates": [ 8.555281508426383, 47.307024010137404 ] } },
{ "type": "Feature", "properties": { "element": "node", "id": 3080372101, "name": "Thalwil", "railway": "station" }, "geometry": { "type": "Point", "coordinates": [ 8.564837808439057, 47.296014010130968 ] } },
{ "type": "Feature", "properties": { "element": "node", "id": 3080372104, "name": "Wädenswil", "railway": "station" }, "geometry": { "type": "Point", "coordinates": [ 8.675185308566576, 47.229295910076353 ] } },
{ "type": "Feature", "properties": { "element": "node", "id": 3080372105, "name": "Zürich Altstetten", "railway": "station" }, "geometry": { "type": "Point", "coordinates": [ 8.489333208336268, 47.391316710183844 ] } },
{ "type": "Feature", "properties": { "element": "node", "id": 3080372106, "name": "Zürich Wollishofen", "railway": "station" }, "geometry": { "type": "Point", "coordinates": [ 8.533738108392908, 47.347781910157039 ] } },
{ "type": "Feature", "properties": { "element": "node", "id": 3080695761, "name": "Urdorf", "railway": "station" }, "geometry": { "type": "Point", "coordinates": [ 8.434752608283109, 47.390851610199391 ] } },
{ "type": "Feature", "properties": { "element": "node", "id": 3228473453, "name": "Zürich Hauptbahnhof SZU", "railway": "station" }, "geometry": { "type": "Point", "coordinates": [ 8.539444508389318, 47.377371810164966 ] } },
{ "type": "Feature", "properties": { "element": "node", "id": 3313765161, "name": "Uitikon Waldegg", "railway": "station" }, "geometry": { "type": "Point", "coordinates": [ 8.465834108321102, 47.366016010182484 ] } },
{ "type": "Feature", "properties": { "element": "node", "id": 3316140071, "name": "Zürich Manegg", "railway": "station" }, "geometry": { "type": "Point", "coordinates": [ 8.519735408382328, 47.337827610157774 ] } },
{ "type": "Feature", "properties": { "element": "node", "id": 3316144419, "name": "Sihlau", "railway": "station" }, "geometry": { "type": "Point", "coordinates": [ 8.525303608398341, 47.303240210144757 ] } },
{ "type": "Feature", "properties": { "element": "node", "id": 3316144420, "name": "Sood-Oberleimbach", "railway": "station" }, "geometry": { "type": "Point", "coordinates": [ 8.521469808389607, 47.319584110151268 ] } },
{ "type": "Feature", "properties": { "element": "node", "id": 3316144421, "name": "Wildpark-Höfli", "railway": "station" }, "geometry": { "type": "Point", "coordinates": [ 8.53558640841041, 47.296545310139585 ] } },
{ "type": "Feature", "properties": { "element": "node", "id": 3882179348, "name": "Dietikon", "railway": "station" }, "geometry": { "type": "Point", "coordinates": [ 8.4053982082501, 47.404827110212189 ] } },
{ "type": "Feature", "properties": { "element": "node", "id": 4415254993, "name": "Schlieren", "railway": "station" }, "geometry": { "type": "Point", "coordinates": [ 8.447395708292945, 47.399122110198398 ] } },
{ "type": "Feature", "properties": { "element": "node", "id": 4416076342, "name": "Zürich Wipkingen", "railway": "station" }, "geometry": { "type": "Point", "coordinates": [ 8.529315708374623, 47.393055510172935 ] } },
{ "type": "Feature", "properties": { "element": "node", "id": 4574932116, "name": "Rüti", "railway": "station" }, "geometry": { "type": "Point", "coordinates": [ 8.854359408728794, 47.260352010033891 ] } },
{ "type": "Feature", "properties": { "element": "node", "id": 5675880532, "name": "Esslingen", "railway": "station" }, "geometry": { "type": "Point", "coordinates": [ 8.710051708582109, 47.287656610085783 ] } },
{ "type": "Feature", "properties": { "element": "node", "id": 5675880536, "name": "Zollikerberg", "railway": "station" }, "geometry": { "type": "Point", "coordinates": [ 8.603501508461134, 47.346060510136269 ] } },
{ "type": "Feature", "properties": { "element": "node", "id": 5675880538, "name": "Waltikon", "railway": "station" }, "geometry": { "type": "Point", "coordinates": [ 8.616792608476828, 47.33692741012937 ] } },
{ "type": "Feature", "properties": { "element": "node", "id": 7984382984, "name": "Airside Center", "railway": "station" }, "geometry": { "type": "Point", "coordinates": [ 8.560277708386073, 47.452541710182658 ] } },
{ "type": "Feature", "properties": { "element": "node", "id": 12543644481, "name": "Bäretswil", "railway": "station" }, "geometry": { "type": "Point", "coordinates": [ 8.852018408702024, 47.337367010059964 ] } },
{ "type": "Feature", "properties": { "element": "node", "id": 12543702616, "name": "Ettenhausen-Emmetschloo", "railway": "station" }, "geometry": { "type": "Point", "coordinates": [ 8.834425208689185, 47.325276210061283 ] } }
]
}
