{
"type": "FeatureCollection",
"name": "gastronomie_zh",
"crs": { "type": "name", "properties": { "name": "urn:ogc:def:crs:OGC:1.3:CRS84" } },
"features": [
{ "type": "Feature", "properties": { "element": "node", "id": 34039212, "name": "Hallenbadrestaurant Geiselweid", "amenity": "restaurant" }, "geometry": { "type": "Point", "coordinates": [ 8.741556408546133, 47.495518410142438 ] } },
{ "type": "Feature", "properties": { "element": "node", "id": 34040796, "name": "Schwimmbadrestaurant Töss", "amenity": "restaurant" }, "geometry": { "type": "Point", "coordinates": [ 8.705704008516015, 47.483064810149379 ] } },
{ "type": "Feature", "properties": { "element": "node", "id": 57370928, "name": "Metzg", "amenity": "restaurant" }, "geometry": { "type": "Point", "coordinates": [ 8.726042408610672, 47.245359610066934 ] } },
{ "type": "Feature", "properties": { "element": "node", "id": 59624426, "name": "Landgasthof Adler", "amenity": "restaurant" }, "geometry": { "type": "Point", "coordinates": [ 8.756607008630318, 47.276489010068353 ] } },
{ "type": "Feature", "properties": { "element": "node", "id": 60228711, "name": "Hochwacht", "amenity": "restaurant" }, "geometry": { "type": "Point", "coordinates": [ 8.67562560854825, 47.289924210096672 ] } },
{ "type": "Feature", "properties": { "element": "node", "id": 73653071, "name": "moana", "amenity": "cafe" }, "geometry": { "type": "Point", "coordinates": [ 8.529785208390235, 47.343952110156891 ] } },
{ "type": "Feature", "properties": { "element": "node", "id": 75025846, "name": "Il Grappolo", "amenity": "restaurant" }, "geometry": { "type": "Point", "coordinates": [ 8.532240808395031, 47.336138110153634 ] } },
{ "type": "Feature", "properties": { "element": "node", "id": 80087517, "name": "Yan-Ruyi", "amenity": "restaurant" }, "geometry": { "type": "Point", "coordinates": [ 8.532660008392982, 47.344109410156157 ] } },
{ "type": "Feature", "properties": { "element": "node", "id": 83370553, "name": "Boom", "amenity": "restaurant" }, "geometry": { "type": "Point", "coordinates": [ 8.529208808394996, 47.326614910151399 ] } },
{ "type": "Feature", "properties": { "element": "node", "id": 96531280, "name": "Marché Kemptthal", "amenity": "restaurant" }, "geometry": { "type": "Point", "coordinates": [ 8.699707908521299, 47.448748410140588 ] } },
{ "type": "Feature", "properties": { "element": "node", "id": 103122838, "name": "Ziegel oh Lac", "amenity": "restaurant" }, "geometry": { "type": "Point", "coordinates": [ 8.536855908397241, 47.34355861015473 ] } },
{ "type": "Feature", "properties": { "element": "node", "id": 104247187, "name": "UBS Restaurant Flur", "amenity": "restaurant" }, "geometry": { "type": "Point", "coordinates": [ 8.492941208342405, 47.382807010180123 ] } },
{ "type": "Feature", "properties": { "element": "node", "id": 104274210, "name": "Freihof Pizzeria Etna", "amenity": "restaurant" }, "geometry": { "type": "Point", "coordinates": [ 8.499595308348672, 47.383491010178425 ] } },
{ "type": "Feature", "properties": { "element": "node", "id": 104274852, "name": "Letzigrund", "amenity": "restaurant" }, "geometry": { "type": "Point", "coordinates": [ 8.501268108350592, 47.382578110177683 ] } },
{ "type": "Feature", "properties": { "element": "node", "id": 104275299, "name": "Pizza Züri", "amenity": "restaurant" }, "geometry": { "type": "Point", "coordinates": [ 8.497827208346726, 47.384242210179181 ] } },
{ "type": "Feature", "properties": { "element": "node", "id": 104276014, "name": "Turbinenhalle", "amenity": "restaurant" }, "geometry": { "type": "Point", "coordinates": [ 8.496402808345378, 47.384100910179512 ] } },
{ "type": "Feature", "properties": { "element": "node", "id": 105443906, "name": "Gabbiano", "amenity": "restaurant" }, "geometry": { "type": "Point", "coordinates": [ 8.537479308377369, 47.409767010175898 ] } },
{ "type": "Feature", "properties": { "element": "node", "id": 105459350, "name": "Zeughauskeller", "amenity": "restaurant" }, "geometry": { "type": "Point", "coordinates": [ 8.539923308391955, 47.370372710162535 ] } },
{ "type": "Feature", "properties": { "element": "node", "id": 105460220, "name": "Sprüngli Café-Bar", "amenity": "cafe" }, "geometry": { "type": "Point", "coordinates": [ 8.539215708391598, 47.36929391016244 ] } },
{ "type": "Feature", "properties": { "element": "node", "id": 105506327, "name": "Zum Alten Löwen", "amenity": "restaurant" }, "geometry": { "type": "Point", "coordinates": [ 8.548246908395516, 47.384979610164883 ] } },
{ "type": "Feature", "properties": { "element": "node", "id": 107488702, "name": null, "amenity": "cafe" }, "geometry": { "type": "Point", "coordinates": [ 8.562480808421023, 47.347185510148535 ] } },
{ "type": "Feature", "properties": { "element": "node", "id": 112965994, "name": "Cafe Medina", "amenity": "restaurant" }, "geometry": { "type": "Point", "coordinates": [ 8.530461208391483, 47.342040510156082 ] } },
{ "type": "Feature", "properties": { "element": "node", "id": 119247298, "name": "Haus Hiltl", "amenity": "restaurant" }, "geometry": { "type": "Point", "coordinates": [ 8.53674950838796, 47.37330421016442 ] } },
{ "type": "Feature", "properties": { "element": "node", "id": 120475242, "name": "sunshine hill american bar & restaurant", "amenity": "restaurant" }, "geometry": { "type": "Point", "coordinates": [ 8.721418008603356, 47.254570310071387 ] } },
{ "type": "Feature", "properties": { "element": "node", "id": 190949817, "name": "Frohsinn", "amenity": "restaurant" }, "geometry": { "type": "Point", "coordinates": [ 8.646679808488305, 47.392419710138505 ] } },
{ "type": "Feature", "properties": { "element": "node", "id": 227597896, "name": "Spiisbeiz Aberen", "amenity": "restaurant" }, "geometry": { "type": "Point", "coordinates": [ 8.734650508618525, 47.246716210064839 ] } },
{ "type": "Feature", "properties": { "element": "node", "id": 242557373, "name": "Rössli", "amenity": "restaurant" }, "geometry": { "type": "Point", "coordinates": [ 8.718879808605607, 47.239464010067039 ] } },
{ "type": "Feature", "properties": { "element": "node", "id": 246249861, "name": "Tibits", "amenity": "restaurant" }, "geometry": { "type": "Point", "coordinates": [ 8.731263208534873, 47.500050210146888 ] } },
{ "type": "Feature", "properties": { "element": "node", "id": 246252799, "name": "Kafisatz", "amenity": "cafe" }, "geometry": { "type": "Point", "coordinates": [ 8.727264408531441, 47.49890071014773 ] } },
{ "type": "Feature", "properties": { "element": "node", "id": 246253649, "name": "Vollenweider", "amenity": "cafe" }, "geometry": { "type": "Point", "coordinates": [ 8.725040408529036, 47.499804510148657 ] } },
{ "type": "Feature", "properties": { "element": "node", "id": 246253651, "name": "Casinotheater Restaurant Fredi", "amenity": "restaurant" }, "geometry": { "type": "Point", "coordinates": [ 8.726491908530432, 47.499747010148205 ] } },
{ "type": "Feature", "properties": { "element": "node", "id": 247766478, "name": "grepery", "amenity": "restaurant" }, "geometry": { "type": "Point", "coordinates": [ 8.727372008531852, 47.497956510147375 ] } },
{ "type": "Feature", "properties": { "element": "node", "id": 247766635, "name": "Cappucino", "amenity": "cafe" }, "geometry": { "type": "Point", "coordinates": [ 8.730454408534518, 47.498766710146761 ] } },
{ "type": "Feature", "properties": { "element": "node", "id": 250554254, "name": "Kafi Öfeli", "amenity": "cafe" }, "geometry": { "type": "Point", "coordinates": [ 8.477295908326598, 47.384598810185196 ] } },
{ "type": "Feature", "properties": { "element": "node", "id": 251191296, "name": "Löwen", "amenity": "restaurant" }, "geometry": { "type": "Point", "coordinates": [ 8.379756208193486, 47.507451310251454 ] } },
{ "type": "Feature", "properties": { "element": "node", "id": 251191973, "name": "Zur Schmitte", "amenity": "restaurant" }, "geometry": { "type": "Point", "coordinates": [ 8.414596808230041, 47.499249810239057 ] } },
{ "type": "Feature", "properties": { "element": "node", "id": 252407018, "name": "Ristorante Culmann", "amenity": "restaurant" }, "geometry": { "type": "Point", "coordinates": [ 8.547019808396037, 47.37944221016344 ] } },
{ "type": "Feature", "properties": { "element": "node", "id": 252407019, "name": "La Fontana", "amenity": "restaurant" }, "geometry": { "type": "Point", "coordinates": [ 8.54692550839586, 47.379720110163511 ] } },
{ "type": "Feature", "properties": { "element": "node", "id": 253207101, "name": "Il Postino", "amenity": "restaurant" }, "geometry": { "type": "Point", "coordinates": [ 8.543642508386345, 47.400103010171051 ] } },
{ "type": "Feature", "properties": { "element": "node", "id": 254674787, "name": "Alpenröösli Wallike", "amenity": "restaurant" }, "geometry": { "type": "Point", "coordinates": [ 8.805208708644376, 47.378510710087205 ] } },
{ "type": "Feature", "properties": { "element": "node", "id": 256339532, "name": "Peking Garden", "amenity": "restaurant" }, "geometry": { "type": "Point", "coordinates": [ 8.488885808335899, 47.391096210183974 ] } },
{ "type": "Feature", "properties": { "element": "node", "id": 256437327, "name": "Waldhaus Katzensee", "amenity": "restaurant" }, "geometry": { "type": "Point", "coordinates": [ 8.48937520832459, 47.429251510195954 ] } },
{ "type": "Feature", "properties": { "element": "node", "id": 256866280, "name": "National", "amenity": "restaurant" }, "geometry": { "type": "Point", "coordinates": [ 8.724112908528188, 47.499697910148882 ] } },
{ "type": "Feature", "properties": { "element": "node", "id": 257143164, "name": "Frohsinn", "amenity": "restaurant" }, "geometry": { "type": "Point", "coordinates": [ 8.758689908622607, 47.307389910077994 ] } },
{ "type": "Feature", "properties": { "element": "node", "id": 260130515, "name": "Schloss Schwandegg", "amenity": "restaurant" }, "geometry": { "type": "Point", "coordinates": [ 8.77676760853751, 47.623341310169195 ] } },
{ "type": "Feature", "properties": { "element": "node", "id": 261651356, "name": "Oberhof", "amenity": "restaurant" }, "geometry": { "type": "Point", "coordinates": [ 8.553472008404153, 47.37346281015963 ] } },
{ "type": "Feature", "properties": { "element": "node", "id": 261914358, "name": "Dar", "amenity": "restaurant" }, "geometry": { "type": "Point", "coordinates": [ 8.523963708376751, 47.369368210166883 ] } },
{ "type": "Feature", "properties": { "element": "node", "id": 262378050, "name": "Rosengarten", "amenity": "restaurant" }, "geometry": { "type": "Point", "coordinates": [ 8.556388508408119, 47.369787910157612 ] } },
{ "type": "Feature", "properties": { "element": "node", "id": 262594347, "name": "Thai Orchid", "amenity": "restaurant" }, "geometry": { "type": "Point", "coordinates": [ 8.645003808525484, 47.26788611009826 ] } },
{ "type": "Feature", "properties": { "element": "node", "id": 262595435, "name": "Steiner", "amenity": "cafe" }, "geometry": { "type": "Point", "coordinates": [ 8.805081708658653, 47.333451710072737 ] } },
{ "type": "Feature", "properties": { "element": "node", "id": 265776667, "name": "Grain", "amenity": "restaurant" }, "geometry": { "type": "Point", "coordinates": [ 8.559374008409042, 47.376150310158792 ] } },
{ "type": "Feature", "properties": { "element": "node", "id": 266312456, "name": "Wirtschaft Ziegelhütte", "amenity": "restaurant" }, "geometry": { "type": "Point", "coordinates": [ 8.57277560841475, 47.399532110162404 ] } },
{ "type": "Feature", "properties": { "element": "node", "id": 266630292, "name": "Gebeta äthiopische und eritreische Spezialitäten", "amenity": "restaurant" }, "geometry": { "type": "Point", "coordinates": [ 8.513008908363641, 47.377310610172557 ] } },
{ "type": "Feature", "properties": { "element": "node", "id": 266630369, "name": "Taverne da Angelo", "amenity": "restaurant" }, "geometry": { "type": "Point", "coordinates": [ 8.514767208365711, 47.37615811017168 ] } },
{ "type": "Feature", "properties": { "element": "node", "id": 266630370, "name": "Lok Lak Asian Eatery", "amenity": "restaurant" }, "geometry": { "type": "Point", "coordinates": [ 8.509610508360021, 47.378329110173873 ] } },
{ "type": "Feature", "properties": { "element": "node", "id": 266812256, "name": "Lokal", "amenity": "restaurant" }, "geometry": { "type": "Point", "coordinates": [ 8.591335508399251, 47.505576910189845 ] } },
{ "type": "Feature", "properties": { "element": "node", "id": 266864392, "name": "Restaurant Waldmannsburg", "amenity": "restaurant" }, "geometry": { "type": "Point", "coordinates": [ 8.616681708463556, 47.379154310143107 ] } },
{ "type": "Feature", "properties": { "element": "node", "id": 266864505, "name": "Pizzeria Il Faro", "amenity": "restaurant" }, "geometry": { "type": "Point", "coordinates": [ 8.613805408455228, 47.396893810149585 ] } },
{ "type": "Feature", "properties": { "element": "node", "id": 267022405, "name": "Tasteria", "amenity": "restaurant" }, "geometry": { "type": "Point", "coordinates": [ 8.533014908371564, 47.414506610178634 ] } },
{ "type": "Feature", "properties": { "element": "node", "id": 267023274, "name": "Kai Sushi", "amenity": "restaurant" }, "geometry": { "type": "Point", "coordinates": [ 8.539455008377844, 47.414391710176773 ] } },
{ "type": "Feature", "properties": { "element": "node", "id": 267049751, "name": "Imone", "amenity": "restaurant" }, "geometry": { "type": "Point", "coordinates": [ 8.520115608374672, 47.363950110166215 ] } },
{ "type": "Feature", "properties": { "element": "node", "id": 267345309, "name": "Soho", "amenity": "restaurant" }, "geometry": { "type": "Point", "coordinates": [ 8.520804108367789, 47.388434610173867 ] } },
{ "type": "Feature", "properties": { "element": "node", "id": 267879344, "name": "Shangrila Tibet", "amenity": "restaurant" }, "geometry": { "type": "Point", "coordinates": [ 8.510069808363115, 47.369741410170995 ] } },
{ "type": "Feature", "properties": { "element": "node", "id": 267879346, "name": "Walter Buchmann", "amenity": "cafe" }, "geometry": { "type": "Point", "coordinates": [ 8.519103708374109, 47.36258391016603 ] } },
{ "type": "Feature", "properties": { "element": "node", "id": 267879347, "name": "AnaMiRa", "amenity": "restaurant" }, "geometry": { "type": "Point", "coordinates": [ 8.520422608374899, 47.364185910166213 ] } },
{ "type": "Feature", "properties": { "element": "node", "id": 267879348, "name": "Hopfenau", "amenity": "restaurant" }, "geometry": { "type": "Point", "coordinates": [ 8.520002308374197, 47.36514171016664 ] } },
{ "type": "Feature", "properties": { "element": "node", "id": 267879350, "name": "Jane Fine Food", "amenity": "restaurant" }, "geometry": { "type": "Point", "coordinates": [ 8.520035508373555, 47.367343210167355 ] } },
{ "type": "Feature", "properties": { "element": "node", "id": 267879351, "name": "Swaad", "amenity": "restaurant" }, "geometry": { "type": "Point", "coordinates": [ 8.516228908372348, 47.359221510165824 ] } },
{ "type": "Feature", "properties": { "element": "node", "id": 268411248, "name": "Hotel Seegarten", "amenity": "restaurant" }, "geometry": { "type": "Point", "coordinates": [ 8.549412008403946, 47.361387410156929 ] } },
{ "type": "Feature", "properties": { "element": "node", "id": 268420651, "name": "Ginger", "amenity": "restaurant" }, "geometry": { "type": "Point", "coordinates": [ 8.550687308405042, 47.361839410156676 ] } },
{ "type": "Feature", "properties": { "element": "node", "id": 268421310, "name": "Tiffins", "amenity": "restaurant" }, "geometry": { "type": "Point", "coordinates": [ 8.551033008405364, 47.361893410156618 ] } },
{ "type": "Feature", "properties": { "element": "node", "id": 268421599, "name": "Suan Long", "amenity": "restaurant" }, "geometry": { "type": "Point", "coordinates": [ 8.549528108403557, 47.363011210157389 ] } },
{ "type": "Feature", "properties": { "element": "node", "id": 268467807, "name": "Kronenhalle", "amenity": "restaurant" }, "geometry": { "type": "Point", "coordinates": [ 8.545718808398453, 47.367551110159944 ] } },
{ "type": "Feature", "properties": { "element": "node", "id": 268467884, "name": "Terrasse Restaurant", "amenity": "restaurant" }, "geometry": { "type": "Point", "coordinates": [ 8.544388208397063, 47.367887210160468 ] } },
{ "type": "Feature", "properties": { "element": "node", "id": 268468109, "name": "Café Bar ODEON", "amenity": "restaurant" }, "geometry": { "type": "Point", "coordinates": [ 8.545144608397822, 47.367794210160248 ] } },
{ "type": "Feature", "properties": { "element": "node", "id": 268468215, "name": "Rosaly's", "amenity": "restaurant" }, "geometry": { "type": "Point", "coordinates": [ 8.54585410839864, 47.367384310159885 ] } },
{ "type": "Feature", "properties": { "element": "node", "id": 268468702, "name": "Yume Ramen", "amenity": "restaurant" }, "geometry": { "type": "Point", "coordinates": [ 8.54624540839912, 47.367048410159612 ] } },
{ "type": "Feature", "properties": { "element": "node", "id": 268468872, "name": "Yooji's", "amenity": "restaurant" }, "geometry": { "type": "Point", "coordinates": [ 8.546484008399311, 47.36718671015965 ] } },
{ "type": "Feature", "properties": { "element": "node", "id": 268469567, "name": "Commercio", "amenity": "restaurant" }, "geometry": { "type": "Point", "coordinates": [ 8.549083708402218, 47.365931310158523 ] } },
{ "type": "Feature", "properties": { "element": "node", "id": 268470209, "name": "Restaurant Hotel Europe", "amenity": "restaurant" }, "geometry": { "type": "Point", "coordinates": [ 8.547223508400959, 47.364168810158425 ] } },
{ "type": "Feature", "properties": { "element": "node", "id": 268470293, "name": "Hatecke du Théâtre", "amenity": "restaurant" }, "geometry": { "type": "Point", "coordinates": [ 8.547384608401172, 47.363996010158374 ] } },
{ "type": "Feature", "properties": { "element": "node", "id": 268470809, "name": "Co Chin Chin", "amenity": "restaurant" }, "geometry": { "type": "Point", "coordinates": [ 8.550862608405142, 47.362090310156717 ] } },
{ "type": "Feature", "properties": { "element": "node", "id": 268471384, "name": "Amalfi", "amenity": "restaurant" }, "geometry": { "type": "Point", "coordinates": [ 8.549991608404731, 47.360669510156534 ] } },
{ "type": "Feature", "properties": { "element": "node", "id": 268474433, "name": "Restaurant Pumpstation", "amenity": "restaurant" }, "geometry": { "type": "Point", "coordinates": [ 8.546378008400302, 47.363643810158507 ] } },
{ "type": "Feature", "properties": { "element": "node", "id": 268475658, "name": "Bohemia", "amenity": "restaurant" }, "geometry": { "type": "Point", "coordinates": [ 8.554893808408218, 47.364789010156436 ] } },
{ "type": "Feature", "properties": { "element": "node", "id": 268475809, "name": "Nooba", "amenity": "restaurant" }, "geometry": { "type": "Point", "coordinates": [ 8.554528008407745, 47.36517031015665 ] } },
{ "type": "Feature", "properties": { "element": "node", "id": 268482384, "name": "Yooji's", "amenity": "restaurant" }, "geometry": { "type": "Point", "coordinates": [ 8.55416720840952, 47.358287910154544 ] } },
{ "type": "Feature", "properties": { "element": "node", "id": 268488025, "name": "Cafe Black", "amenity": "cafe" }, "geometry": { "type": "Point", "coordinates": [ 8.548548708403001, 47.36173491015731 ] } },
{ "type": "Feature", "properties": { "element": "node", "id": 268564876, "name": "Bimi", "amenity": "restaurant" }, "geometry": { "type": "Point", "coordinates": [ 8.548280308401715, 47.365057710158446 ] } },
{ "type": "Feature", "properties": { "element": "node", "id": 268601209, "name": "Gesundheitszentrum für das Alter Wildbach", "amenity": "restaurant" }, "geometry": { "type": "Point", "coordinates": [ 8.557583608413054, 47.357581910153336 ] } },
{ "type": "Feature", "properties": { "element": "node", "id": 268602010, "name": "Ländli", "amenity": "restaurant" }, "geometry": { "type": "Point", "coordinates": [ 8.554561808408529, 47.362730410155869 ] } },
{ "type": "Feature", "properties": { "element": "node", "id": 268602798, "name": "Santa Lucia", "amenity": "restaurant" }, "geometry": { "type": "Point", "coordinates": [ 8.546736708399822, 47.36631961015928 ] } },
{ "type": "Feature", "properties": { "element": "node", "id": 268602878, "name": "Lulu", "amenity": "restaurant" }, "geometry": { "type": "Point", "coordinates": [ 8.546063508399579, 47.36498691015904 ] } },
{ "type": "Feature", "properties": { "element": "node", "id": 268654801, "name": "Grünwald", "amenity": "restaurant" }, "geometry": { "type": "Point", "coordinates": [ 8.482606308321513, 47.417917110194296 ] } },
{ "type": "Feature", "properties": { "element": "node", "id": 268656386, "name": "Gasthof Hirschen", "amenity": "restaurant" }, "geometry": { "type": "Point", "coordinates": [ 8.46548560830108, 47.430041910203023 ] } },
{ "type": "Feature", "properties": { "element": "node", "id": 268963180, "name": "House of Ren", "amenity": "restaurant" }, "geometry": { "type": "Point", "coordinates": [ 8.531182108385465, 47.363861110163 ] } },
{ "type": "Feature", "properties": { "element": "node", "id": 269120286, "name": "Sewasdee", "amenity": "restaurant" }, "geometry": { "type": "Point", "coordinates": [ 8.71871080857114, 47.349140110103491 ] } },
{ "type": "Feature", "properties": { "element": "node", "id": 269120290, "name": "Suan Long", "amenity": "restaurant" }, "geometry": { "type": "Point", "coordinates": [ 8.717043108569595, 47.348956210103864 ] } },
{ "type": "Feature", "properties": { "element": "node", "id": 269234997, "name": "Pöstli Da Mamma Lisetta", "amenity": "restaurant" }, "geometry": { "type": "Point", "coordinates": [ 8.718133608570312, 47.350009210103956 ] } },
{ "type": "Feature", "properties": { "element": "node", "id": 269371155, "name": "Restaurant Dübi Ice", "amenity": "restaurant" }, "geometry": { "type": "Point", "coordinates": [ 8.627177008470412, 47.389590710143381 ] } },
{ "type": "Feature", "properties": { "element": "node", "id": 269423285, "name": "Buchholz", "amenity": "restaurant" }, "geometry": { "type": "Point", "coordinates": [ 8.729313908577984, 47.359622510103691 ] } },
{ "type": "Feature", "properties": { "element": "node", "id": 269423294, "name": "Frieden", "amenity": "restaurant" }, "geometry": { "type": "Point", "coordinates": [ 8.716818108570074, 47.346754110103277 ] } },
{ "type": "Feature", "properties": { "element": "node", "id": 269423304, "name": "Turandot", "amenity": "restaurant" }, "geometry": { "type": "Point", "coordinates": [ 8.727576008580398, 47.346710810100028 ] } },
{ "type": "Feature", "properties": { "element": "node", "id": 269549794, "name": "Kastanie", "amenity": "restaurant" }, "geometry": { "type": "Point", "coordinates": [ 8.715879908569187, 47.34672061010351 ] } },
{ "type": "Feature", "properties": { "element": "node", "id": 269913252, "name": "Weisse Rose", "amenity": "restaurant" }, "geometry": { "type": "Point", "coordinates": [ 8.545665208398203, 47.368206110160209 ] } },
{ "type": "Feature", "properties": { "element": "node", "id": 270691220, "name": "Minine", "amenity": "restaurant" }, "geometry": { "type": "Point", "coordinates": [ 8.550048508402211, 47.369002810159216 ] } },
{ "type": "Feature", "properties": { "element": "node", "id": 270692604, "name": "NA081", "amenity": "restaurant" }, "geometry": { "type": "Point", "coordinates": [ 8.552486108407438, 47.359753610155472 ] } },
{ "type": "Feature", "properties": { "element": "node", "id": 270793731, "name": "Sonnenberg", "amenity": "restaurant" }, "geometry": { "type": "Point", "coordinates": [ 8.567509308419661, 47.367348310153623 ] } },
{ "type": "Feature", "properties": { "element": "node", "id": 270794503, "name": "Aroma", "amenity": "restaurant" }, "geometry": { "type": "Point", "coordinates": [ 8.563657308416511, 47.365469810154075 ] } },
{ "type": "Feature", "properties": { "element": "node", "id": 270795412, "name": "Villa Böcklin", "amenity": "cafe" }, "geometry": { "type": "Point", "coordinates": [ 8.560633808414012, 47.364072010154558 ] } },
{ "type": "Feature", "properties": { "element": "node", "id": 270795664, "name": "Alters- & Pflegewohnheim Neumünster", "amenity": "cafe" }, "geometry": { "type": "Point", "coordinates": [ 8.5594513084132, 47.362981710154557 ] } },
{ "type": "Feature", "properties": { "element": "node", "id": 270795983, "name": "Restaurant Zauberberg", "amenity": "restaurant" }, "geometry": { "type": "Point", "coordinates": [ 8.559991508413646, 47.363216510154452 ] } },
{ "type": "Feature", "properties": { "element": "node", "id": 270796284, "name": "Lin Lin", "amenity": "restaurant" }, "geometry": { "type": "Point", "coordinates": [ 8.558781508412745, 47.362347210154539 ] } },
{ "type": "Feature", "properties": { "element": "node", "id": 270796495, "name": "ButchersTable", "amenity": "restaurant" }, "geometry": { "type": "Point", "coordinates": [ 8.560365208414526, 47.36156011015381 ] } },
{ "type": "Feature", "properties": { "element": "node", "id": 270797381, "name": "Neumünster", "amenity": "restaurant" }, "geometry": { "type": "Point", "coordinates": [ 8.558504608413317, 47.359620610153712 ] } },
{ "type": "Feature", "properties": { "element": "node", "id": 270798260, "name": "Strand-Restaurant Tiefenbrunnen", "amenity": "restaurant" }, "geometry": { "type": "Point", "coordinates": [ 8.558048208415238, 47.351970110151335 ] } },
{ "type": "Feature", "properties": { "element": "node", "id": 270798712, "name": "Wolfbach", "amenity": "restaurant" }, "geometry": { "type": "Point", "coordinates": [ 8.552204008403891, 47.37034411015901 ] } },
{ "type": "Feature", "properties": { "element": "node", "id": 270798749, "name": "Afghan Anar", "amenity": "restaurant" }, "geometry": { "type": "Point", "coordinates": [ 8.552981208404811, 47.369791910158568 ] } },
{ "type": "Feature", "properties": { "element": "node", "id": 270799257, "name": "Café Berner", "amenity": "cafe" }, "geometry": { "type": "Point", "coordinates": [ 8.554054308405922, 47.369558810158225 ] } },
{ "type": "Feature", "properties": { "element": "node", "id": 270799706, "name": "Mühlebach", "amenity": "cafe" }, "geometry": { "type": "Point", "coordinates": [ 8.551772908405436, 47.363992310157094 ] } },
{ "type": "Feature", "properties": { "element": "node", "id": 270799836, "name": "Blockhus", "amenity": "restaurant" }, "geometry": { "type": "Point", "coordinates": [ 8.545181108397738, 47.368183310160369 ] } },
{ "type": "Feature", "properties": { "element": "node", "id": 270800540, "name": "Weisser Wind", "amenity": "restaurant" }, "geometry": { "type": "Point", "coordinates": [ 8.545508608397856, 47.368824910160477 ] } },
{ "type": "Feature", "properties": { "element": "node", "id": 270800553, "name": "Oberdorf Beck", "amenity": "cafe" }, "geometry": { "type": "Point", "coordinates": [ 8.545625008398014, 47.368669310160378 ] } },
{ "type": "Feature", "properties": { "element": "node", "id": 270800743, "name": "Papa Joe's Zürich", "amenity": "restaurant" }, "geometry": { "type": "Point", "coordinates": [ 8.544574308396973, 47.368759510160707 ] } },
{ "type": "Feature", "properties": { "element": "node", "id": 270800785, "name": "Molino", "amenity": "restaurant" }, "geometry": { "type": "Point", "coordinates": [ 8.543958608396276, 47.36904721016095 ] } },
{ "type": "Feature", "properties": { "element": "node", "id": 270803095, "name": "Conditorei schober", "amenity": "cafe" }, "geometry": { "type": "Point", "coordinates": [ 8.54182410839365, 47.370868910162187 ] } },
{ "type": "Feature", "properties": { "element": "node", "id": 270803256, "name": "Zunfthaus zur Meisen", "amenity": "restaurant" }, "geometry": { "type": "Point", "coordinates": [ 8.541694508393769, 47.37006121016195 ] } },
{ "type": "Feature", "properties": { "element": "node", "id": 270908998, "name": "zum Schäfli", "amenity": "restaurant" }, "geometry": { "type": "Point", "coordinates": [ 8.731382608535343, 47.498960610146547 ] } },
{ "type": "Feature", "properties": { "element": "node", "id": 270938093, "name": "Bei Moudi am Kunsthaus", "amenity": "restaurant" }, "geometry": { "type": "Point", "coordinates": [ 8.547986308399672, 47.370734910160344 ] } },
{ "type": "Feature", "properties": { "element": "node", "id": 270938312, "name": "Orsini", "amenity": "restaurant" }, "geometry": { "type": "Point", "coordinates": [ 8.54012420839223, 47.370103210162405 ] } },
{ "type": "Feature", "properties": { "element": "node", "id": 270938320, "name": "Santa Lucia", "amenity": "restaurant" }, "geometry": { "type": "Point", "coordinates": [ 8.539826408391962, 47.370060310162479 ] } },
{ "type": "Feature", "properties": { "element": "node", "id": 270938366, "name": "Heugümper", "amenity": "restaurant" }, "geometry": { "type": "Point", "coordinates": [ 8.540131408392186, 47.370271510162468 ] } },
{ "type": "Feature", "properties": { "element": "node", "id": 270938371, "name": "Zunfthaus zur Waag", "amenity": "restaurant" }, "geometry": { "type": "Point", "coordinates": [ 8.54031160839237, 47.370240110162356 ] } },
{ "type": "Feature", "properties": { "element": "node", "id": 270938393, "name": "Münsterhöfli", "amenity": "restaurant" }, "geometry": { "type": "Point", "coordinates": [ 8.540359808392488, 47.370017510162299 ] } },
{ "type": "Feature", "properties": { "element": "node", "id": 270938652, "name": "Ăn Ăn", "amenity": "restaurant" }, "geometry": { "type": "Point", "coordinates": [ 8.540568708392914, 47.36930001016205 ] } },
{ "type": "Feature", "properties": { "element": "node", "id": 270938706, "name": "Milchbar", "amenity": "restaurant" }, "geometry": { "type": "Point", "coordinates": [ 8.540233908392679, 47.368996110162037 ] } },
{ "type": "Feature", "properties": { "element": "node", "id": 271148493, "name": "Outback Lodge", "amenity": "restaurant" }, "geometry": { "type": "Point", "coordinates": [ 8.547702308400529, 47.367078810159278 ] } },
{ "type": "Feature", "properties": { "element": "node", "id": 271148578, "name": "Negishi sushi bar", "amenity": "restaurant" }, "geometry": { "type": "Point", "coordinates": [ 8.547428008400235, 47.367150710159336 ] } },
{ "type": "Feature", "properties": { "element": "node", "id": 271148947, "name": "Weisses Kreuz", "amenity": "restaurant" }, "geometry": { "type": "Point", "coordinates": [ 8.548651308401748, 47.366111210158643 ] } },
{ "type": "Feature", "properties": { "element": "node", "id": 271149013, "name": "Migros Restaurant", "amenity": "restaurant" }, "geometry": { "type": "Point", "coordinates": [ 8.54787650840121, 47.365432410158689 ] } },
{ "type": "Feature", "properties": { "element": "node", "id": 271151204, "name": "Outpost", "amenity": "restaurant" }, "geometry": { "type": "Point", "coordinates": [ 8.574152208420866, 47.384199710157091 ] } },
{ "type": "Feature", "properties": { "element": "node", "id": 271151271, "name": "Zoo Caffè & Ristorante", "amenity": "restaurant" }, "geometry": { "type": "Point", "coordinates": [ 8.575184408421803, 47.384396710156857 ] } },
{ "type": "Feature", "properties": { "element": "node", "id": 271217159, "name": "La Trattoria Blumenau", "amenity": "restaurant" }, "geometry": { "type": "Point", "coordinates": [ 8.563195308421145, 47.349034110148907 ] } },
{ "type": "Feature", "properties": { "element": "node", "id": 271222013, "name": "Pflegezentrum Rehalp", "amenity": "cafe" }, "geometry": { "type": "Point", "coordinates": [ 8.5778661084346, 47.351557210145458 ] } },
{ "type": "Feature", "properties": { "element": "node", "id": 271223885, "name": "Burgwies", "amenity": "restaurant" }, "geometry": { "type": "Point", "coordinates": [ 8.572418408427371, 47.357826710149098 ] } },
{ "type": "Feature", "properties": { "element": "node", "id": 271224408, "name": "Cafeteria", "amenity": "cafe" }, "geometry": { "type": "Point", "coordinates": [ 8.570721708425575, 47.35832621014977 ] } },
{ "type": "Feature", "properties": { "element": "node", "id": 271225075, "name": "Antiquaria da marco", "amenity": "restaurant" }, "geometry": { "type": "Point", "coordinates": [ 8.566561108420759, 47.36084971015179 ] } },
{ "type": "Feature", "properties": { "element": "node", "id": 271225393, "name": "Stiftung Perla Park", "amenity": "cafe" }, "geometry": { "type": "Point", "coordinates": [ 8.565983308420206, 47.36081261015196 ] } },
{ "type": "Feature", "properties": { "element": "node", "id": 271225677, "name": "Marcellino Pane e Vino", "amenity": "restaurant" }, "geometry": { "type": "Point", "coordinates": [ 8.565740008420159, 47.360208110151817 ] } },
{ "type": "Feature", "properties": { "element": "node", "id": 271226695, "name": "Royal Panda", "amenity": "restaurant" }, "geometry": { "type": "Point", "coordinates": [ 8.554573908408043, 47.364331610156384 ] } },
{ "type": "Feature", "properties": { "element": "node", "id": 271411931, "name": "Restaurant Schipfe 16", "amenity": "restaurant" }, "geometry": { "type": "Point", "coordinates": [ 8.541789808392922, 47.373118010162905 ] } },
{ "type": "Feature", "properties": { "element": "node", "id": 271411935, "name": "Brasserie Lipp", "amenity": "restaurant" }, "geometry": { "type": "Point", "coordinates": [ 8.539467408390271, 47.374374810163992 ] } },
{ "type": "Feature", "properties": { "element": "node", "id": 271411936, "name": "Lotti", "amenity": "restaurant" }, "geometry": { "type": "Point", "coordinates": [ 8.539712408390264, 47.375174410164163 ] } },
{ "type": "Feature", "properties": { "element": "node", "id": 271411938, "name": "Starbucks", "amenity": "cafe" }, "geometry": { "type": "Point", "coordinates": [ 8.539219308390249, 47.373663810163798 ] } },
{ "type": "Feature", "properties": { "element": "node", "id": 271411939, "name": "Confiserie Honold", "amenity": "cafe" }, "geometry": { "type": "Point", "coordinates": [ 8.538956008390016, 47.373602910163946 ] } },
{ "type": "Feature", "properties": { "element": "node", "id": 271672265, "name": "Silk", "amenity": "restaurant" }, "geometry": { "type": "Point", "coordinates": [ 8.547092908400781, 47.364340710158551 ] } },
{ "type": "Feature", "properties": { "element": "node", "id": 272354078, "name": "Belcafe", "amenity": "cafe" }, "geometry": { "type": "Point", "coordinates": [ 8.545148608398039, 47.367090710159978 ] } },
{ "type": "Feature", "properties": { "element": "node", "id": 273502894, "name": "Valentino", "amenity": "cafe" }, "geometry": { "type": "Point", "coordinates": [ 8.55078100840565, 47.360170610156118 ] } },
{ "type": "Feature", "properties": { "element": "node", "id": 274986932, "name": "Trinity", "amenity": "restaurant" }, "geometry": { "type": "Point", "coordinates": [ 8.537286608390223, 47.367680510162451 ] } },
{ "type": "Feature", "properties": { "element": "node", "id": 275034265, "name": "Traube", "amenity": "restaurant" }, "geometry": { "type": "Point", "coordinates": [ 8.717522508542491, 47.435709810131272 ] } },
{ "type": "Feature", "properties": { "element": "node", "id": 275341574, "name": "Cheti's Curry", "amenity": "restaurant" }, "geometry": { "type": "Point", "coordinates": [ 8.54866370840209, 47.365048810158306 ] } },
{ "type": "Feature", "properties": { "element": "node", "id": 276483741, "name": "Starbucks", "amenity": "cafe" }, "geometry": { "type": "Point", "coordinates": [ 8.546983708400109, 47.366172410159159 ] } },
{ "type": "Feature", "properties": { "element": "node", "id": 277735330, "name": "Frohsinn", "amenity": "restaurant" }, "geometry": { "type": "Point", "coordinates": [ 8.801467008599783, 47.505197510127488 ] } },
{ "type": "Feature", "properties": { "element": "node", "id": 277746978, "name": "Kafi Ass", "amenity": "restaurant" }, "geometry": { "type": "Point", "coordinates": [ 8.761252008565828, 47.492496410135693 ] } },
{ "type": "Feature", "properties": { "element": "node", "id": 279180951, "name": "Dupont Brasserie & Bar", "amenity": "restaurant" }, "geometry": { "type": "Point", "coordinates": [ 8.541341408391533, 47.376185610164057 ] } },
{ "type": "Feature", "properties": { "element": "node", "id": 279180960, "name": "Sala of Tokyo", "amenity": "restaurant" }, "geometry": { "type": "Point", "coordinates": [ 8.540212908390442, 47.376182110164351 ] } },
{ "type": "Feature", "properties": { "element": "node", "id": 279573363, "name": "TS Green Inn", "amenity": "restaurant" }, "geometry": { "type": "Point", "coordinates": [ 8.83084070870594, 47.261745210041404 ] } },
{ "type": "Feature", "properties": { "element": "node", "id": 280783431, "name": "Santa Lucia", "amenity": "restaurant" }, "geometry": { "type": "Point", "coordinates": [ 8.543744208395095, 47.372205710162085 ] } },
{ "type": "Feature", "properties": { "element": "node", "id": 281384749, "name": "Horn", "amenity": "cafe" }, "geometry": { "type": "Point", "coordinates": [ 8.70574570860177, 47.210872110061118 ] } },
{ "type": "Feature", "properties": { "element": "node", "id": 282655573, "name": "Alltag", "amenity": "cafe" }, "geometry": { "type": "Point", "coordinates": [ 8.730930308534823, 47.49924881014676 ] } },
{ "type": "Feature", "properties": { "element": "node", "id": 282655581, "name": "Pulcinella", "amenity": "restaurant" }, "geometry": { "type": "Point", "coordinates": [ 8.72770100853193, 47.498689010147523 ] } },
{ "type": "Feature", "properties": { "element": "node", "id": 283458326, "name": "Walliser Kanne", "amenity": "restaurant" }, "geometry": { "type": "Point", "coordinates": [ 8.538836908388946, 47.37669741016493 ] } },
{ "type": "Feature", "properties": { "element": "node", "id": 283458329, "name": "Café Felix", "amenity": "cafe" }, "geometry": { "type": "Point", "coordinates": [ 8.538374008388928, 47.375292810164659 ] } },
{ "type": "Feature", "properties": { "element": "node", "id": 283458330, "name": "Piazzetta", "amenity": "cafe" }, "geometry": { "type": "Point", "coordinates": [ 8.539384008389568, 47.376389610164658 ] } },
{ "type": "Feature", "properties": { "element": "node", "id": 283458331, "name": "SAM'S Pizza Land", "amenity": "restaurant" }, "geometry": { "type": "Point", "coordinates": [ 8.53848280838881, 47.376026810164802 ] } },
{ "type": "Feature", "properties": { "element": "node", "id": 283458339, "name": "Schützengasse", "amenity": "restaurant" }, "geometry": { "type": "Point", "coordinates": [ 8.537525408387529, 47.377131510165441 ] } },
{ "type": "Feature", "properties": { "element": "node", "id": 283458368, "name": "Astra", "amenity": "restaurant" }, "geometry": { "type": "Point", "coordinates": [ 8.535549008386457, 47.374393410165126 ] } },
{ "type": "Feature", "properties": { "element": "node", "id": 285896841, "name": "Pizza Bros", "amenity": "restaurant" }, "geometry": { "type": "Point", "coordinates": [ 8.537357008377247, 47.409774310175926 ] } },
{ "type": "Feature", "properties": { "element": "node", "id": 286038265, "name": "Glogge-Egge", "amenity": "restaurant" }, "geometry": { "type": "Point", "coordinates": [ 8.536685908388026, 47.37290551016433 ] } },
{ "type": "Feature", "properties": { "element": "node", "id": 286038266, "name": "James Joyce", "amenity": "restaurant" }, "geometry": { "type": "Point", "coordinates": [ 8.537177708388722, 47.372204410163945 ] } },
{ "type": "Feature", "properties": { "element": "node", "id": 286038267, "name": "Aurora", "amenity": "restaurant" }, "geometry": { "type": "Point", "coordinates": [ 8.53798160838919, 47.373203510164046 ] } },
{ "type": "Feature", "properties": { "element": "node", "id": 288340413, "name": "Café Zähringer", "amenity": "restaurant" }, "geometry": { "type": "Point", "coordinates": [ 8.544795508395682, 47.373599810162219 ] } },
{ "type": "Feature", "properties": { "element": "node", "id": 289669563, "name": "Il Tartufo", "amenity": "restaurant" }, "geometry": { "type": "Point", "coordinates": [ 8.533394808388749, 47.36019801016112 ] } },
{ "type": "Feature", "properties": { "element": "node", "id": 289669633, "name": "L'Altro", "amenity": "restaurant" }, "geometry": { "type": "Point", "coordinates": [ 8.534078608389448, 47.360064510160903 ] } },
{ "type": "Feature", "properties": { "element": "node", "id": 289669639, "name": "Sternen Da Guido", "amenity": "restaurant" }, "geometry": { "type": "Point", "coordinates": [ 8.531843408387386, 47.359704710161445 ] } },
{ "type": "Feature", "properties": { "element": "node", "id": 289669794, "name": "Amara", "amenity": "restaurant" }, "geometry": { "type": "Point", "coordinates": [ 8.532308108386669, 47.363508210162578 ] } },
{ "type": "Feature", "properties": { "element": "node", "id": 289669803, "name": "Ruen Tai", "amenity": "restaurant" }, "geometry": { "type": "Point", "coordinates": [ 8.532510908386799, 47.363742210162556 ] } },
{ "type": "Feature", "properties": { "element": "node", "id": 289669851, "name": "La Mimosa", "amenity": "restaurant" }, "geometry": { "type": "Point", "coordinates": [ 8.533900108388217, 47.363514710162072 ] } },
{ "type": "Feature", "properties": { "element": "node", "id": 289890175, "name": "Restaurant Belvoirpark", "amenity": "restaurant" }, "geometry": { "type": "Point", "coordinates": [ 8.533274008389389, 47.35772631016038 ] } },
{ "type": "Feature", "properties": { "element": "node", "id": 289958398, "name": "Löwen", "amenity": "restaurant" }, "geometry": { "type": "Point", "coordinates": [ 8.496400208290316, 47.560399810233818 ] } },
{ "type": "Feature", "properties": { "element": "node", "id": 289958401, "name": "Kafi Judith", "amenity": "restaurant" }, "geometry": { "type": "Point", "coordinates": [ 8.499390808293661, 47.558927710232524 ] } },
{ "type": "Feature", "properties": { "element": "node", "id": 291130137, "name": "Traube", "amenity": "restaurant" }, "geometry": { "type": "Point", "coordinates": [ 8.499751908294439, 47.557586510232035 ] } },
{ "type": "Feature", "properties": { "element": "node", "id": 293260583, "name": "LyLai Chinese Table", "amenity": "restaurant" }, "geometry": { "type": "Point", "coordinates": [ 8.579689508404444, 47.453738510177409 ] } },
{ "type": "Feature", "properties": { "element": "node", "id": 293605180, "name": "Pöstli", "amenity": "restaurant" }, "geometry": { "type": "Point", "coordinates": [ 8.467111708272213, 47.527843210232632 ] } },
{ "type": "Feature", "properties": { "element": "node", "id": 293610656, "name": "Brauerei", "amenity": "restaurant" }, "geometry": { "type": "Point", "coordinates": [ 8.468675808274039, 47.526859310231863 ] } },
{ "type": "Feature", "properties": { "element": "node", "id": 297711157, "name": "Old Inn", "amenity": "restaurant" }, "geometry": { "type": "Point", "coordinates": [ 8.532561108386197, 47.365841010163216 ] } },
{ "type": "Feature", "properties": { "element": "node", "id": 297711769, "name": "McDonald's", "amenity": "restaurant" }, "geometry": { "type": "Point", "coordinates": [ 8.532129708386242, 47.364335410162894 ] } },
{ "type": "Feature", "properties": { "element": "node", "id": 298169838, "name": "greperey - crêpes & drinks", "amenity": "restaurant" }, "geometry": { "type": "Point", "coordinates": [ 8.54373950839506, 47.37231351016208 ] } },
{ "type": "Feature", "properties": { "element": "node", "id": 298256302, "name": "Pizzeria Riedpark", "amenity": "restaurant" }, "geometry": { "type": "Point", "coordinates": [ 8.477541808287427, 47.511594410224752 ] } },
{ "type": "Feature", "properties": { "element": "node", "id": 298540244, "name": "Nishat", "amenity": "restaurant" }, "geometry": { "type": "Point", "coordinates": [ 8.543031108420378, 47.287646210134483 ] } },
{ "type": "Feature", "properties": { "element": "node", "id": 298540246, "name": "Pizza-Dome Haslen", "amenity": "restaurant" }, "geometry": { "type": "Point", "coordinates": [ 8.532141108410629, 47.28479181013666 ] } },
{ "type": "Feature", "properties": { "element": "node", "id": 299083440, "name": "Blume", "amenity": "restaurant" }, "geometry": { "type": "Point", "coordinates": [ 8.732396208576294, 47.374250610107467 ] } },
{ "type": "Feature", "properties": { "element": "node", "id": 299610695, "name": "Don Weber", "amenity": "restaurant" }, "geometry": { "type": "Point", "coordinates": [ 8.5244404083715, 47.387861410172668 ] } },
{ "type": "Feature", "properties": { "element": "node", "id": 300419202, "name": "Quartier 5 Restaurant & Bar", "amenity": "restaurant" }, "geometry": { "type": "Point", "coordinates": [ 8.513219608358755, 47.3937910101778 ] } },
{ "type": "Feature", "properties": { "element": "node", "id": 300419657, "name": "Cucina", "amenity": "restaurant" }, "geometry": { "type": "Point", "coordinates": [ 8.507804208353541, 47.393619710179287 ] } },
{ "type": "Feature", "properties": { "element": "node", "id": 300428220, "name": "Taverne zum Hirschen", "amenity": "restaurant" }, "geometry": { "type": "Point", "coordinates": [ 8.694408408496255, 47.510925610161074 ] } },
{ "type": "Feature", "properties": { "element": "node", "id": 300696698, "name": "Hotz", "amenity": "cafe" }, "geometry": { "type": "Point", "coordinates": [ 8.639475408488138, 47.370856110133772 ] } },
{ "type": "Feature", "properties": { "element": "node", "id": 301239672, "name": "OKO", "amenity": "restaurant" }, "geometry": { "type": "Point", "coordinates": [ 8.528216008379863, 47.372671010166712 ] } },
{ "type": "Feature", "properties": { "element": "node", "id": 301657450, "name": "Binario 3", "amenity": "restaurant" }, "geometry": { "type": "Point", "coordinates": [ 8.750735708590287, 47.385374210105581 ] } },
{ "type": "Feature", "properties": { "element": "node", "id": 301662770, "name": "Gasthof zum Hecht", "amenity": "restaurant" }, "geometry": { "type": "Point", "coordinates": [ 8.781147208625539, 47.365786310090286 ] } },
{ "type": "Feature", "properties": { "element": "node", "id": 301663066, "name": "Brauerei", "amenity": "restaurant" }, "geometry": { "type": "Point", "coordinates": [ 8.781672408626036, 47.365804010090137 ] } },
{ "type": "Feature", "properties": { "element": "node", "id": 301815443, "name": "St. Jakob Beck", "amenity": "cafe" }, "geometry": { "type": "Point", "coordinates": [ 8.52784020837915, 47.373805410167179 ] } },
{ "type": "Feature", "properties": { "element": "node", "id": 302352955, "name": "Rosinli", "amenity": "restaurant" }, "geometry": { "type": "Point", "coordinates": [ 8.833940308682921, 47.343418710067326 ] } },
{ "type": "Feature", "properties": { "element": "node", "id": 303067123, "name": "Primitivo", "amenity": "restaurant" }, "geometry": { "type": "Point", "coordinates": [ 8.53623710838381, 47.385113710168355 ] } },
{ "type": "Feature", "properties": { "element": "node", "id": 304074124, "name": "Restaurant Langenberg (Jäger- und Ofenstübli)", "amenity": "restaurant" }, "geometry": { "type": "Point", "coordinates": [ 8.52893850840513, 47.292610910140205 ] } },
{ "type": "Feature", "properties": { "element": "node", "id": 304597368, "name": "Hang's", "amenity": "restaurant" }, "geometry": { "type": "Point", "coordinates": [ 8.540875908384562, 47.39720521017091 ] } },
{ "type": "Feature", "properties": { "element": "node", "id": 304691643, "name": "Am Chappeli", "amenity": "restaurant" }, "geometry": { "type": "Point", "coordinates": [ 8.673892808515463, 47.389264810129539 ] } },
{ "type": "Feature", "properties": { "element": "node", "id": 305017101, "name": "Starbucks", "amenity": "cafe" }, "geometry": { "type": "Point", "coordinates": [ 8.531771308385784, 47.364702510163063 ] } },
{ "type": "Feature", "properties": { "element": "node", "id": 305474041, "name": "Jucker Farm Hofrestaurant", "amenity": "restaurant" }, "geometry": { "type": "Point", "coordinates": [ 8.773069008624899, 47.34357941008556 ] } },
{ "type": "Feature", "properties": { "element": "node", "id": 305585256, "name": "Sternen", "amenity": "restaurant" }, "geometry": { "type": "Point", "coordinates": [ 8.857852908733664, 47.255456210031191 ] } },
{ "type": "Feature", "properties": { "element": "node", "id": 305586626, "name": "Les Halles", "amenity": "restaurant" }, "geometry": { "type": "Point", "coordinates": [ 8.518644808365865, 47.387863310174325 ] } },
{ "type": "Feature", "properties": { "element": "node", "id": 305586751, "name": "Toscano im Puls 5", "amenity": "restaurant" }, "geometry": { "type": "Point", "coordinates": [ 8.517909808364472, 47.390055510175245 ] } },
{ "type": "Feature", "properties": { "element": "node", "id": 305707741, "name": "Meraki", "amenity": "restaurant" }, "geometry": { "type": "Point", "coordinates": [ 8.627543708453654, 47.443877610160342 ] } },
{ "type": "Feature", "properties": { "element": "node", "id": 305712903, "name": "Barone", "amenity": "restaurant" }, "geometry": { "type": "Point", "coordinates": [ 8.624418808450338, 47.444865810161531 ] } },
{ "type": "Feature", "properties": { "element": "node", "id": 305713306, "name": "Steakhouse 8303", "amenity": "restaurant" }, "geometry": { "type": "Point", "coordinates": [ 8.627268608453422, 47.44377371016045 ] } },
{ "type": "Feature", "properties": { "element": "node", "id": 306286865, "name": "Restaurant & Bar Metzg Russikon", "amenity": "restaurant" }, "geometry": { "type": "Point", "coordinates": [ 8.775037708610821, 47.393628910101 ] } },
{ "type": "Feature", "properties": { "element": "node", "id": 307364223, "name": "Café Auszeit", "amenity": "restaurant" }, "geometry": { "type": "Point", "coordinates": [ 8.711253408513519, 47.507203010155031 ] } },
{ "type": "Feature", "properties": { "element": "node", "id": 307364547, "name": "Pizzeria Rosenberg", "amenity": "restaurant" }, "geometry": { "type": "Point", "coordinates": [ 8.721651408521975, 47.511659810153262 ] } },
{ "type": "Feature", "properties": { "element": "node", "id": 307446903, "name": "Wilden Mann", "amenity": "restaurant" }, "geometry": { "type": "Point", "coordinates": [ 8.823829508667592, 47.361281810076115 ] } },
{ "type": "Feature", "properties": { "element": "node", "id": 307501795, "name": "Castanea", "amenity": "restaurant" }, "geometry": { "type": "Point", "coordinates": [ 8.759714208607019, 47.359724810094761 ] } },
{ "type": "Feature", "properties": { "element": "node", "id": 307663831, "name": "Wirtschaft zum Neubüel", "amenity": "restaurant" }, "geometry": { "type": "Point", "coordinates": [ 8.634781908526724, 47.231626810088954 ] } },
{ "type": "Feature", "properties": { "element": "node", "id": 307667723, "name": "Pizzeria Romantica", "amenity": "restaurant" }, "geometry": { "type": "Point", "coordinates": [ 8.668031508558993, 47.231432110079197 ] } },
{ "type": "Feature", "properties": { "element": "node", "id": 307667861, "name": "Neuhuesli", "amenity": "restaurant" }, "geometry": { "type": "Point", "coordinates": [ 8.670743408562286, 47.229260110077682 ] } },
{ "type": "Feature", "properties": { "element": "node", "id": 307668027, "name": "Cafe City", "amenity": "restaurant" }, "geometry": { "type": "Point", "coordinates": [ 8.670256208561721, 47.229557910077851 ] } },
{ "type": "Feature", "properties": { "element": "node", "id": 307670012, "name": "Ristorante La Leonessa", "amenity": "restaurant" }, "geometry": { "type": "Point", "coordinates": [ 8.670125508561819, 47.228825910077695 ] } },
{ "type": "Feature", "properties": { "element": "node", "id": 307737732, "name": "Bäsebeiz Chopfholz", "amenity": "restaurant" }, "geometry": { "type": "Point", "coordinates": [ 8.852182508707077, 47.322065910055009 ] } },
{ "type": "Feature", "properties": { "element": "node", "id": 307742573, "name": "Fusio", "amenity": "restaurant" }, "geometry": { "type": "Point", "coordinates": [ 8.540353208378731, 47.414333310176502 ] } },
{ "type": "Feature", "properties": { "element": "node", "id": 307747470, "name": "Die Waid", "amenity": "restaurant" }, "geometry": { "type": "Point", "coordinates": [ 8.515405608358973, 47.399962310179134 ] } },
{ "type": "Feature", "properties": { "element": "node", "id": 308133192, "name": "Gambrinus", "amenity": "restaurant" }, "geometry": { "type": "Point", "coordinates": [ 8.675758008567707, 47.227401310075528 ] } },
{ "type": "Feature", "properties": { "element": "node", "id": 309383763, "name": "zur Sommerau", "amenity": "restaurant" }, "geometry": { "type": "Point", "coordinates": [ 8.791505708629222, 47.385124510093419 ] } },
{ "type": "Feature", "properties": { "element": "node", "id": 309404850, "name": "Wirtschaft zur Blume", "amenity": "restaurant" }, "geometry": { "type": "Point", "coordinates": [ 8.817195608667356, 47.342313310071987 ] } },
{ "type": "Feature", "properties": { "element": "node", "id": 310134149, "name": "Dông Quê", "amenity": "restaurant" }, "geometry": { "type": "Point", "coordinates": [ 8.548429908384717, 47.420250210175993 ] } },
{ "type": "Feature", "properties": { "element": "node", "id": 310134171, "name": "I Cugini", "amenity": "restaurant" }, "geometry": { "type": "Point", "coordinates": [ 8.546908608383484, 47.419484210176201 ] } },
{ "type": "Feature", "properties": { "element": "node", "id": 310139071, "name": "Metzgerhalle", "amenity": "restaurant" }, "geometry": { "type": "Point", "coordinates": [ 8.546478108385999, 47.410061710173345 ] } },
{ "type": "Feature", "properties": { "element": "node", "id": 310139076, "name": "Rolli's Steakhouse", "amenity": "restaurant" }, "geometry": { "type": "Point", "coordinates": [ 8.546421208386016, 47.409825810173331 ] } },
{ "type": "Feature", "properties": { "element": "node", "id": 310139088, "name": "Bellucci", "amenity": "restaurant" }, "geometry": { "type": "Point", "coordinates": [ 8.546990608386224, 47.41093871017349 ] } },
{ "type": "Feature", "properties": { "element": "node", "id": 310300430, "name": "Schlossberg", "amenity": "restaurant" }, "geometry": { "type": "Point", "coordinates": [ 8.7936211086228, 47.411363610101077 ] } },
{ "type": "Feature", "properties": { "element": "node", "id": 310788549, "name": "Kobal", "amenity": "restaurant" }, "geometry": { "type": "Point", "coordinates": [ 8.524375508375204, 47.375668510168815 ] } },
{ "type": "Feature", "properties": { "element": "node", "id": 310814715, "name": "Krone", "amenity": "restaurant" }, "geometry": { "type": "Point", "coordinates": [ 8.773013408608128, 47.396025610102349 ] } },
{ "type": "Feature", "properties": { "element": "node", "id": 310836301, "name": "Freihof", "amenity": "restaurant" }, "geometry": { "type": "Point", "coordinates": [ 8.839211508675135, 47.383225510078574 ] } },
{ "type": "Feature", "properties": { "element": "node", "id": 310847996, "name": "Heubode", "amenity": "restaurant" }, "geometry": { "type": "Point", "coordinates": [ 8.876677308706729, 47.395135610071023 ] } },
{ "type": "Feature", "properties": { "element": "node", "id": 310854577, "name": "Tablat", "amenity": "restaurant" }, "geometry": { "type": "Point", "coordinates": [ 8.860169408685854, 47.411397210081091 ] } },
{ "type": "Feature", "properties": { "element": "node", "id": 310857935, "name": "Neuhaus", "amenity": "restaurant" }, "geometry": { "type": "Point", "coordinates": [ 8.485538608307651, 47.47173951021027 ] } },
{ "type": "Feature", "properties": { "element": "node", "id": 310859251, "name": "Frieden", "amenity": "restaurant" }, "geometry": { "type": "Point", "coordinates": [ 8.483101708302268, 47.481408110213955 ] } },
{ "type": "Feature", "properties": { "element": "node", "id": 310860663, "name": "Da Pepino Niederhasli – Italienische und Schweizer Küche", "amenity": "restaurant" }, "geometry": { "type": "Point", "coordinates": [ 8.485509808304935, 47.480362710212908 ] } },
{ "type": "Feature", "properties": { "element": "node", "id": 311130859, "name": "Passion by Valentina", "amenity": "cafe" }, "geometry": { "type": "Point", "coordinates": [ 8.485167508304629, 47.480273810212964 ] } },
{ "type": "Feature", "properties": { "element": "node", "id": 311180610, "name": "Huberta", "amenity": "restaurant" }, "geometry": { "type": "Point", "coordinates": [ 8.498343708349285, 47.377552010176885 ] } },
{ "type": "Feature", "properties": { "element": "node", "id": 311607525, "name": "Casa Helvetia", "amenity": "restaurant" }, "geometry": { "type": "Point", "coordinates": [ 8.525963908376484, 47.376529210168599 ] } },
{ "type": "Feature", "properties": { "element": "node", "id": 311607628, "name": "Tenz Momo", "amenity": "restaurant" }, "geometry": { "type": "Point", "coordinates": [ 8.52629680837649, 47.377551610168801 ] } },
{ "type": "Feature", "properties": { "element": "node", "id": 311859446, "name": "Jaime El Barco", "amenity": "restaurant" }, "geometry": { "type": "Point", "coordinates": [ 8.540896908379105, 47.414817110176486 ] } },
{ "type": "Feature", "properties": { "element": "node", "id": 311859451, "name": "Kitchen & Bar by Courtyard", "amenity": "restaurant" }, "geometry": { "type": "Point", "coordinates": [ 8.540854908379222, 47.414313510176356 ] } },
{ "type": "Feature", "properties": { "element": "node", "id": 311859457, "name": "Santa Lucia", "amenity": "restaurant" }, "geometry": { "type": "Point", "coordinates": [ 8.546233108386028, 47.40920551017313 ] } },
{ "type": "Feature", "properties": { "element": "node", "id": 311859458, "name": "Cheyenne", "amenity": "restaurant" }, "geometry": { "type": "Point", "coordinates": [ 8.54570620838529, 47.409930210173513 ] } },
{ "type": "Feature", "properties": { "element": "node", "id": 311960281, "name": "Il Salento", "amenity": "restaurant" }, "geometry": { "type": "Point", "coordinates": [ 8.494874208345369, 47.379283110178442 ] } },
{ "type": "Feature", "properties": { "element": "node", "id": 312130321, "name": "La Baracca", "amenity": "restaurant" }, "geometry": { "type": "Point", "coordinates": [ 8.522301008373036, 47.376173610169531 ] } },
{ "type": "Feature", "properties": { "element": "node", "id": 312137617, "name": "Chichería Cantina", "amenity": "restaurant" }, "geometry": { "type": "Point", "coordinates": [ 8.522224608373634, 47.373982510168844 ] } },
{ "type": "Feature", "properties": { "element": "node", "id": 312496592, "name": "Trube", "amenity": "restaurant" }, "geometry": { "type": "Point", "coordinates": [ 8.498791408322321, 47.465973710204644 ] } },
{ "type": "Feature", "properties": { "element": "node", "id": 312530452, "name": "Fribourger Stübli", "amenity": "restaurant" }, "geometry": { "type": "Point", "coordinates": [ 8.528181408379098, 47.375039010167484 ] } },
{ "type": "Feature", "properties": { "element": "node", "id": 312580271, "name": "LILY'S", "amenity": "restaurant" }, "geometry": { "type": "Point", "coordinates": [ 8.529603608378162, 47.382539810169497 ] } },
{ "type": "Feature", "properties": { "element": "node", "id": 312592661, "name": "Saravanaa Bhavan", "amenity": "restaurant" }, "geometry": { "type": "Point", "coordinates": [ 8.535575008384164, 47.381887610167482 ] } },
{ "type": "Feature", "properties": { "element": "node", "id": 313026928, "name": "FiveSpice", "amenity": "restaurant" }, "geometry": { "type": "Point", "coordinates": [ 8.516427808367427, 47.375829510171108 ] } },
{ "type": "Feature", "properties": { "element": "node", "id": 313212365, "name": "Suan Long", "amenity": "restaurant" }, "geometry": { "type": "Point", "coordinates": [ 8.524403708375488, 47.374858910168498 ] } },
{ "type": "Feature", "properties": { "element": "node", "id": 313212546, "name": "Yuma", "amenity": "restaurant" }, "geometry": { "type": "Point", "coordinates": [ 8.5239732083752, 47.374422010168487 ] } },
{ "type": "Feature", "properties": { "element": "node", "id": 313367191, "name": "Le Cèdre", "amenity": "restaurant" }, "geometry": { "type": "Point", "coordinates": [ 8.52649470837782, 47.373883310167571 ] } },
{ "type": "Feature", "properties": { "element": "node", "id": 313367755, "name": "Sarajevska Ćevabdžinica", "amenity": "restaurant" }, "geometry": { "type": "Point", "coordinates": [ 8.492622608343575, 47.377993610178621 ] } },
{ "type": "Feature", "properties": { "element": "node", "id": 313531572, "name": "Furtbächli", "amenity": "restaurant" }, "geometry": { "type": "Point", "coordinates": [ 8.466965708298044, 47.444530210207169 ] } },
{ "type": "Feature", "properties": { "element": "node", "id": 313944175, "name": "Mediterraneo", "amenity": "restaurant" }, "geometry": { "type": "Point", "coordinates": [ 8.510986008332608, 47.470895210202642 ] } },
{ "type": "Feature", "properties": { "element": "node", "id": 314658886, "name": "Peking Garden", "amenity": "restaurant" }, "geometry": { "type": "Point", "coordinates": [ 8.717966108570041, 47.350340710104042 ] } },
{ "type": "Feature", "properties": { "element": "node", "id": 315861625, "name": "Derby", "amenity": "restaurant" }, "geometry": { "type": "Point", "coordinates": [ 8.516334808367247, 47.376119610171251 ] } },
{ "type": "Feature", "properties": { "element": "node", "id": 315862440, "name": "EquiTable", "amenity": "restaurant" }, "geometry": { "type": "Point", "coordinates": [ 8.521149108371384, 47.377860910170391 ] } },
{ "type": "Feature", "properties": { "element": "node", "id": 315863759, "name": "L'Artista", "amenity": "restaurant" }, "geometry": { "type": "Point", "coordinates": [ 8.517831408369021, 47.37509301017046 ] } },
{ "type": "Feature", "properties": { "element": "node", "id": 316701293, "name": "The Butcher", "amenity": "restaurant" }, "geometry": { "type": "Point", "coordinates": [ 8.62228620845797, 47.414181410152572 ] } },
{ "type": "Feature", "properties": { "element": "node", "id": 316831596, "name": "Miki Ramen", "amenity": "restaurant" }, "geometry": { "type": "Point", "coordinates": [ 8.516591208367757, 47.375274210170865 ] } },
{ "type": "Feature", "properties": { "element": "node", "id": 316839692, "name": "Masala", "amenity": "restaurant" }, "geometry": { "type": "Point", "coordinates": [ 8.528978108380501, 47.37301871016659 ] } },
{ "type": "Feature", "properties": { "element": "node", "id": 316855164, "name": "Bauchnuschti", "amenity": "restaurant" }, "geometry": { "type": "Point", "coordinates": [ 8.739111308576463, 47.39390881011176 ] } },
{ "type": "Feature", "properties": { "element": "node", "id": 317005817, "name": "Migros Restaurant", "amenity": "restaurant" }, "geometry": { "type": "Point", "coordinates": [ 8.508575608346051, 47.420226010187513 ] } },
{ "type": "Feature", "properties": { "element": "node", "id": 317024417, "name": "Antica Roma", "amenity": "restaurant" }, "geometry": { "type": "Point", "coordinates": [ 8.531828008384133, 47.370223210164816 ] } },
{ "type": "Feature", "properties": { "element": "node", "id": 317216403, "name": "CaBaRe", "amenity": "cafe" }, "geometry": { "type": "Point", "coordinates": [ 8.477456708317733, 47.413888910194508 ] } },
{ "type": "Feature", "properties": { "element": "node", "id": 317283181, "name": "zum weissen Rössli", "amenity": "restaurant" }, "geometry": { "type": "Point", "coordinates": [ 8.463137708355458, 47.243762210142499 ] } },
{ "type": "Feature", "properties": { "element": "node", "id": 317436707, "name": "S-Family", "amenity": "restaurant" }, "geometry": { "type": "Point", "coordinates": [ 8.517765508369179, 47.374375010170247 ] } },
{ "type": "Feature", "properties": { "element": "node", "id": 317768650, "name": "Starbucks", "amenity": "cafe" }, "geometry": { "type": "Point", "coordinates": [ 8.544195208394182, 47.376580110163339 ] } },
{ "type": "Feature", "properties": { "element": "node", "id": 317769175, "name": "Rheinfelder Bierhalle", "amenity": "restaurant" }, "geometry": { "type": "Point", "coordinates": [ 8.544155908394348, 47.375908110163124 ] } },
{ "type": "Feature", "properties": { "element": "node", "id": 317774611, "name": "Karl der Grosse", "amenity": "restaurant" }, "geometry": { "type": "Point", "coordinates": [ 8.544584608396665, 47.369781310161081 ] } },
{ "type": "Feature", "properties": { "element": "node", "id": 317816283, "name": "Restaurant Werdinsel", "amenity": "restaurant" }, "geometry": { "type": "Point", "coordinates": [ 8.48936330833382, 47.399358410186473 ] } },
{ "type": "Feature", "properties": { "element": "node", "id": 318314808, "name": "Camino", "amenity": "restaurant" }, "geometry": { "type": "Point", "coordinates": [ 8.532728808382886, 47.377071410166792 ] } },
{ "type": "Feature", "properties": { "element": "node", "id": 318350213, "name": "Gasthof zur Krone", "amenity": "restaurant" }, "geometry": { "type": "Point", "coordinates": [ 8.675961808524924, 47.365551910121404 ] } },
{ "type": "Feature", "properties": { "element": "node", "id": 319291882, "name": "Ooki Pavillon Letzigrund", "amenity": "restaurant" }, "geometry": { "type": "Point", "coordinates": [ 8.504059408353868, 47.380755410176235 ] } },
{ "type": "Feature", "properties": { "element": "node", "id": 319781338, "name": "Stadtpark Grill", "amenity": "cafe" }, "geometry": { "type": "Point", "coordinates": [ 8.714176508566918, 47.348730610104667 ] } },
{ "type": "Feature", "properties": { "element": "node", "id": 320149547, "name": "Moni + Hanspi's Bäsebeiz", "amenity": "restaurant" }, "geometry": { "type": "Point", "coordinates": [ 8.693592008548617, 47.344104610109262 ] } },
{ "type": "Feature", "properties": { "element": "node", "id": 320199169, "name": "Krone Nossikon", "amenity": "restaurant" }, "geometry": { "type": "Point", "coordinates": [ 8.726738508581439, 47.340872010098416 ] } },
{ "type": "Feature", "properties": { "element": "node", "id": 320583663, "name": "Oase El Salam", "amenity": "restaurant" }, "geometry": { "type": "Point", "coordinates": [ 8.807382308657585, 47.343684210075395 ] } },
{ "type": "Feature", "properties": { "element": "node", "id": 320909203, "name": "Restaurant Kornfeld", "amenity": "restaurant" }, "geometry": { "type": "Point", "coordinates": [ 8.500638008323429, 47.468161610204824 ] } },
{ "type": "Feature", "properties": { "element": "node", "id": 321000070, "name": "Stazione Paradiso", "amenity": "restaurant" }, "geometry": { "type": "Point", "coordinates": [ 8.534033208381171, 47.386736810169566 ] } },
{ "type": "Feature", "properties": { "element": "node", "id": 321364221, "name": "bQm Kulturcafé & Bar", "amenity": "cafe" }, "geometry": { "type": "Point", "coordinates": [ 8.54663980839676, 47.375924910162396 ] } },
{ "type": "Feature", "properties": { "element": "node", "id": 321364237, "name": "SV Mensa Polyterrasse", "amenity": "restaurant" }, "geometry": { "type": "Point", "coordinates": [ 8.546536908396542, 47.376302610162554 ] } },
{ "type": "Feature", "properties": { "element": "node", "id": 321364282, "name": "Tannenbar", "amenity": "cafe" }, "geometry": { "type": "Point", "coordinates": [ 8.547867308397493, 47.377395310162576 ] } },
{ "type": "Feature", "properties": { "element": "node", "id": 321364310, "name": "Clausiusbar", "amenity": "restaurant" }, "geometry": { "type": "Point", "coordinates": [ 8.547000408396691, 47.377255810162701 ] } },
{ "type": "Feature", "properties": { "element": "node", "id": 321364380, "name": "food&lab", "amenity": "restaurant" }, "geometry": { "type": "Point", "coordinates": [ 8.548805008398119, 47.378314010162576 ] } },
{ "type": "Feature", "properties": { "element": "node", "id": 321512252, "name": "Coop Restaurant", "amenity": "restaurant" }, "geometry": { "type": "Point", "coordinates": [ 8.446282108329738, 47.274284210157681 ] } },
{ "type": "Feature", "properties": { "element": "node", "id": 323724619, "name": "Restaurant Reussbrücke", "amenity": "restaurant" }, "geometry": { "type": "Point", "coordinates": [ 8.395011008277596, 47.279880110174076 ] } },
{ "type": "Feature", "properties": { "element": "node", "id": 325223838, "name": "Hotz", "amenity": "cafe" }, "geometry": { "type": "Point", "coordinates": [ 8.783978708627735, 47.367377710089961 ] } },
{ "type": "Feature", "properties": { "element": "node", "id": 325788830, "name": "Landgasthof Hasenstrick", "amenity": "restaurant" }, "geometry": { "type": "Point", "coordinates": [ 8.879330608745859, 47.281330110033416 ] } },
{ "type": "Feature", "properties": { "element": "node", "id": 327453057, "name": "Bernerhof", "amenity": "restaurant" }, "geometry": { "type": "Point", "coordinates": [ 8.532058808383004, 47.374599210166203 ] } },
{ "type": "Feature", "properties": { "element": "node", "id": 327453260, "name": "Ristorante Italia", "amenity": "restaurant" }, "geometry": { "type": "Point", "coordinates": [ 8.52929460837977, 47.376372910167554 ] } },
{ "type": "Feature", "properties": { "element": "node", "id": 329094569, "name": "Gonzalez", "amenity": "restaurant" }, "geometry": { "type": "Point", "coordinates": [ 8.540288208384286, 47.396265310170762 ] } },
{ "type": "Feature", "properties": { "element": "node", "id": 329412523, "name": "First", "amenity": "restaurant" }, "geometry": { "type": "Point", "coordinates": [ 8.736294908559904, 47.437291210126233 ] } },
{ "type": "Feature", "properties": { "element": "node", "id": 331179800, "name": "Rathaus-Café", "amenity": "cafe" }, "geometry": { "type": "Point", "coordinates": [ 8.542607608394034, 47.372079510162351 ] } },
{ "type": "Feature", "properties": { "element": "node", "id": 331182590, "name": "Johanniter", "amenity": "restaurant" }, "geometry": { "type": "Point", "coordinates": [ 8.54414310839439, 47.375751310163075 ] } },
{ "type": "Feature", "properties": { "element": "node", "id": 331183362, "name": "Bierhalle Wolf", "amenity": "restaurant" }, "geometry": { "type": "Point", "coordinates": [ 8.543866008394092, 47.375826410163178 ] } },
{ "type": "Feature", "properties": { "element": "node", "id": 331183852, "name": "Tao's", "amenity": "restaurant" }, "geometry": { "type": "Point", "coordinates": [ 8.540148008391837, 47.37145061016286 ] } },
{ "type": "Feature", "properties": { "element": "node", "id": 331183961, "name": "Kropf", "amenity": "restaurant" }, "geometry": { "type": "Point", "coordinates": [ 8.540216408392153, 47.370651610162568 ] } },
{ "type": "Feature", "properties": { "element": "node", "id": 331184721, "name": "Bindella", "amenity": "restaurant" }, "geometry": { "type": "Point", "coordinates": [ 8.540643208392559, 47.370684610162456 ] } },
{ "type": "Feature", "properties": { "element": "node", "id": 331350098, "name": "Schlüssel Bar", "amenity": "restaurant" }, "geometry": { "type": "Point", "coordinates": [ 8.713331908565225, 47.351544110105813 ] } },
{ "type": "Feature", "properties": { "element": "node", "id": 334300587, "name": "Aargauerhof", "amenity": "restaurant" }, "geometry": { "type": "Point", "coordinates": [ 8.526169008376428, 47.377366510168805 ] } },
{ "type": "Feature", "properties": { "element": "node", "id": 336522818, "name": "Dörfli", "amenity": "restaurant" }, "geometry": { "type": "Point", "coordinates": [ 8.671533408528839, 47.339516910114256 ] } },
{ "type": "Feature", "properties": { "element": "node", "id": 336522822, "name": "Restaurant Sonne 8372", "amenity": "restaurant" }, "geometry": { "type": "Point", "coordinates": [ 8.669183608526279, 47.340461410115218 ] } },
{ "type": "Feature", "properties": { "element": "node", "id": 336645283, "name": "Stall-Stube", "amenity": "restaurant" }, "geometry": { "type": "Point", "coordinates": [ 8.681175408540954, 47.330444510108407 ] } },
{ "type": "Feature", "properties": { "element": "node", "id": 338012101, "name": "Schützenwies", "amenity": "cafe" }, "geometry": { "type": "Point", "coordinates": [ 8.667724608524983, 47.340109510115546 ] } },
{ "type": "Feature", "properties": { "element": "node", "id": 339708425, "name": "Restaurant Alpenblick", "amenity": "restaurant" }, "geometry": { "type": "Point", "coordinates": [ 8.65420190852819, 47.287925110102293 ] } },
{ "type": "Feature", "properties": { "element": "node", "id": 341569815, "name": "Sternen Rotenstein", "amenity": "restaurant" }, "geometry": { "type": "Point", "coordinates": [ 8.823635608691795, 47.284761110051228 ] } },
{ "type": "Feature", "properties": { "element": "node", "id": 343000691, "name": "Il Castello", "amenity": "restaurant" }, "geometry": { "type": "Point", "coordinates": [ 8.520383708339999, 47.476370810201587 ] } },
{ "type": "Feature", "properties": { "element": "node", "id": 343068234, "name": "Caffé Handelshof", "amenity": "cafe" }, "geometry": { "type": "Point", "coordinates": [ 8.535586508386903, 47.373081710164705 ] } },
{ "type": "Feature", "properties": { "element": "node", "id": 343347150, "name": "Zunfthaus zur Schmiden", "amenity": "restaurant" }, "geometry": { "type": "Point", "coordinates": [ 8.543908208395267, 47.372182810161974 ] } },
{ "type": "Feature", "properties": { "element": "node", "id": 343347885, "name": "Gran Café Motta", "amenity": "cafe" }, "geometry": { "type": "Point", "coordinates": [ 8.542959308394304, 47.372316010162294 ] } },
{ "type": "Feature", "properties": { "element": "node", "id": 343364120, "name": "Kantorei", "amenity": "restaurant" }, "geometry": { "type": "Point", "coordinates": [ 8.545532808396764, 47.3724275101616 ] } },
{ "type": "Feature", "properties": { "element": "node", "id": 345525376, "name": "Beke", "amenity": "restaurant" }, "geometry": { "type": "Point", "coordinates": [ 8.514999508366332, 47.374859710171236 ] } },
{ "type": "Feature", "properties": { "element": "node", "id": 345525907, "name": "Schiwago", "amenity": "restaurant" }, "geometry": { "type": "Point", "coordinates": [ 8.510436608362669, 47.372332710171712 ] } },
{ "type": "Feature", "properties": { "element": "node", "id": 345525954, "name": "Treffpunkt", "amenity": "restaurant" }, "geometry": { "type": "Point", "coordinates": [ 8.509913808362727, 47.370498410171308 ] } },
{ "type": "Feature", "properties": { "element": "node", "id": 346245377, "name": "Gotthard", "amenity": "restaurant" }, "geometry": { "type": "Point", "coordinates": [ 8.525836408376245, 47.376912510168687 ] } },
{ "type": "Feature", "properties": { "element": "node", "id": 346301447, "name": "Spycher", "amenity": "restaurant" }, "geometry": { "type": "Point", "coordinates": [ 8.464666008357447, 47.242145710141507 ] } },
{ "type": "Feature", "properties": { "element": "node", "id": 346301449, "name": "Mättmi", "amenity": "restaurant" }, "geometry": { "type": "Point", "coordinates": [ 8.461395208353888, 47.243294610142847 ] } },
{ "type": "Feature", "properties": { "element": "node", "id": 346301450, "name": "Steakhouse Bahnhof", "amenity": "restaurant" }, "geometry": { "type": "Point", "coordinates": [ 8.4579335083502, 47.244249410144157 ] } },
{ "type": "Feature", "properties": { "element": "node", "id": 348273132, "name": "Al Seda", "amenity": "restaurant" }, "geometry": { "type": "Point", "coordinates": [ 8.849976908724653, 47.260236310035147 ] } },
{ "type": "Feature", "properties": { "element": "node", "id": 348273150, "name": "Freihof", "amenity": "restaurant" }, "geometry": { "type": "Point", "coordinates": [ 8.851281708725777, 47.260607710034932 ] } },
{ "type": "Feature", "properties": { "element": "node", "id": 348273260, "name": "Sandhof", "amenity": "restaurant" }, "geometry": { "type": "Point", "coordinates": [ 8.85175420872527, 47.263635010035799 ] } },
{ "type": "Feature", "properties": { "element": "node", "id": 348273279, "name": "Wilder Mann", "amenity": "restaurant" }, "geometry": { "type": "Point", "coordinates": [ 8.851993908725388, 47.263985510035852 ] } },
{ "type": "Feature", "properties": { "element": "node", "id": 349002791, "name": "Sole Mio", "amenity": "restaurant" }, "geometry": { "type": "Point", "coordinates": [ 8.461943808290622, 47.452712310211169 ] } },
{ "type": "Feature", "properties": { "element": "node", "id": 352831991, "name": "Robi’s Dimensione", "amenity": "cafe" }, "geometry": { "type": "Point", "coordinates": [ 8.732564508536312, 47.49944401014632 ] } },
{ "type": "Feature", "properties": { "element": "node", "id": 353056749, "name": "Frohsinn", "amenity": "restaurant" }, "geometry": { "type": "Point", "coordinates": [ 8.573200708405082, 47.431759510172455 ] } },
{ "type": "Feature", "properties": { "element": "node", "id": 354073292, "name": "Eintracht", "amenity": "restaurant" }, "geometry": { "type": "Point", "coordinates": [ 8.82705330865989, 47.394768210085843 ] } },
{ "type": "Feature", "properties": { "element": "node", "id": 354494334, "name": "Ram Bistro & Shop GmbH", "amenity": "restaurant" }, "geometry": { "type": "Point", "coordinates": [ 8.716761408570143, 47.346355410103179 ] } },
{ "type": "Feature", "properties": { "element": "node", "id": 354494335, "name": "Han", "amenity": "restaurant" }, "geometry": { "type": "Point", "coordinates": [ 8.718404008569955, 47.351959310104476 ] } },
{ "type": "Feature", "properties": { "element": "node", "id": 354532237, "name": "Asialand", "amenity": "restaurant" }, "geometry": { "type": "Point", "coordinates": [ 8.71841660857082, 47.34924941010356 ] } },
{ "type": "Feature", "properties": { "element": "node", "id": 354532238, "name": "Manga Sushi", "amenity": "restaurant" }, "geometry": { "type": "Point", "coordinates": [ 8.71539520856796, 47.349127610104425 ] } },
{ "type": "Feature", "properties": { "element": "node", "id": 354532241, "name": "Migros Restaurant", "amenity": "restaurant" }, "geometry": { "type": "Point", "coordinates": [ 8.715986008568224, 47.350089310104565 ] } },
{ "type": "Feature", "properties": { "element": "node", "id": 354534791, "name": "Brunnentor", "amenity": "restaurant" }, "geometry": { "type": "Point", "coordinates": [ 8.721758608573168, 47.351962010103463 ] } },
{ "type": "Feature", "properties": { "element": "node", "id": 354543026, "name": "Mona Lisa", "amenity": "restaurant" }, "geometry": { "type": "Point", "coordinates": [ 8.708428808559923, 47.353421710107874 ] } },
{ "type": "Feature", "properties": { "element": "node", "id": 354919721, "name": "A Casa di Luca", "amenity": "restaurant" }, "geometry": { "type": "Point", "coordinates": [ 8.781508208625734, 47.366240210090375 ] } },
{ "type": "Feature", "properties": { "element": "node", "id": 355228626, "name": "al gusto", "amenity": "restaurant" }, "geometry": { "type": "Point", "coordinates": [ 8.712954608565301, 47.350153410105513 ] } },
{ "type": "Feature", "properties": { "element": "node", "id": 355228629, "name": "Metzgerei Paunovic", "amenity": "restaurant" }, "geometry": { "type": "Point", "coordinates": [ 8.713238608566584, 47.34693221010437 ] } },
{ "type": "Feature", "properties": { "element": "node", "id": 355232196, "name": "Talgarten", "amenity": "restaurant" }, "geometry": { "type": "Point", "coordinates": [ 8.716191908569996, 47.345096810102888 ] } },
{ "type": "Feature", "properties": { "element": "node", "id": 355232199, "name": "Arena", "amenity": "restaurant" }, "geometry": { "type": "Point", "coordinates": [ 8.717096908570316, 47.346832510103184 ] } },
{ "type": "Feature", "properties": { "element": "node", "id": 355232208, "name": "Taverna Poseidon", "amenity": "restaurant" }, "geometry": { "type": "Point", "coordinates": [ 8.720842708573231, 47.348979010102809 ] } },
{ "type": "Feature", "properties": { "element": "node", "id": 355523766, "name": "Linde", "amenity": "restaurant" }, "geometry": { "type": "Point", "coordinates": [ 8.733525008586634, 47.345012510097717 ] } },
{ "type": "Feature", "properties": { "element": "node", "id": 355595100, "name": "Aquarius", "amenity": "restaurant" }, "geometry": { "type": "Point", "coordinates": [ 8.723758508574676, 47.353266010103312 ] } },
{ "type": "Feature", "properties": { "element": "node", "id": 356318407, "name": "Bistro Sunnetal", "amenity": "restaurant" }, "geometry": { "type": "Point", "coordinates": [ 8.64359260849205, 47.371026910132649 ] } },
{ "type": "Feature", "properties": { "element": "node", "id": 356318409, "name": "Bababobo", "amenity": "restaurant" }, "geometry": { "type": "Point", "coordinates": [ 8.630545708477998, 47.375752810137961 ] } },
{ "type": "Feature", "properties": { "element": "node", "id": 356318410, "name": "Sternen", "amenity": "restaurant" }, "geometry": { "type": "Point", "coordinates": [ 8.639063408487875, 47.37042991013378 ] } },
{ "type": "Feature", "properties": { "element": "node", "id": 356692523, "name": "Rhygarte", "amenity": "restaurant" }, "geometry": { "type": "Point", "coordinates": [ 8.596615108372372, 47.605165910217622 ] } },
{ "type": "Feature", "properties": { "element": "node", "id": 357225679, "name": "Yu-An", "amenity": "restaurant" }, "geometry": { "type": "Point", "coordinates": [ 8.527386508379081, 47.372601210166849 ] } },
{ "type": "Feature", "properties": { "element": "node", "id": 357227348, "name": "Ristorante Bar Certo", "amenity": "restaurant" }, "geometry": { "type": "Point", "coordinates": [ 8.528974308380732, 47.372245010166345 ] } },
{ "type": "Feature", "properties": { "element": "node", "id": 357230774, "name": "Köchlistube", "amenity": "restaurant" }, "geometry": { "type": "Point", "coordinates": [ 8.523769608375369, 47.373223510168152 ] } },
{ "type": "Feature", "properties": { "element": "node", "id": 358146599, "name": "Kaufleuten Restaurant", "amenity": "restaurant" }, "geometry": { "type": "Point", "coordinates": [ 8.536356808388101, 47.371632510163998 ] } },
{ "type": "Feature", "properties": { "element": "node", "id": 358919273, "name": "Mops", "amenity": "cafe" }, "geometry": { "type": "Point", "coordinates": [ 8.548887308400625, 47.370469610159979 ] } },
{ "type": "Feature", "properties": { "element": "node", "id": 359683408, "name": "Ristorante Pizzeria al Agi-M", "amenity": "restaurant" }, "geometry": { "type": "Point", "coordinates": [ 8.74029570854465, 47.496391810143081 ] } },
{ "type": "Feature", "properties": { "element": "node", "id": 359683523, "name": "Bistrot George", "amenity": "restaurant" }, "geometry": { "type": "Point", "coordinates": [ 8.738095108542746, 47.495806810143584 ] } },
{ "type": "Feature", "properties": { "element": "node", "id": 359683717, "name": "Cucina", "amenity": "restaurant" }, "geometry": { "type": "Point", "coordinates": [ 8.740720808545726, 47.494314910142336 ] } },
{ "type": "Feature", "properties": { "element": "node", "id": 359685942, "name": "Strauss", "amenity": "restaurant" }, "geometry": { "type": "Point", "coordinates": [ 8.727246008530962, 47.500335810148158 ] } },
{ "type": "Feature", "properties": { "element": "node", "id": 359686638, "name": "Rosa Pulver", "amenity": "restaurant" }, "geometry": { "type": "Point", "coordinates": [ 8.726870908530561, 47.500462810148328 ] } },
{ "type": "Feature", "properties": { "element": "node", "id": 359686907, "name": "Coop Restaurant", "amenity": "restaurant" }, "geometry": { "type": "Point", "coordinates": [ 8.726001808529602, 47.500885910148654 ] } },
{ "type": "Feature", "properties": { "element": "node", "id": 359687037, "name": "Santa Lucia", "amenity": "restaurant" }, "geometry": { "type": "Point", "coordinates": [ 8.725203308528824, 47.500938710148965 ] } },
{ "type": "Feature", "properties": { "element": "node", "id": 359687975, "name": "Restaurant Trübli", "amenity": "restaurant" }, "geometry": { "type": "Point", "coordinates": [ 8.726207908530409, 47.498982910148101 ] } },
{ "type": "Feature", "properties": { "element": "node", "id": 359688178, "name": "Typisch Thai", "amenity": "restaurant" }, "geometry": { "type": "Point", "coordinates": [ 8.726165608530554, 47.498425410147895 ] } },
{ "type": "Feature", "properties": { "element": "node", "id": 359690395, "name": "La Perla", "amenity": "restaurant" }, "geometry": { "type": "Point", "coordinates": [ 8.727835108532341, 47.497799510147217 ] } },
{ "type": "Feature", "properties": { "element": "node", "id": 359690720, "name": "Obergass", "amenity": "restaurant" }, "geometry": { "type": "Point", "coordinates": [ 8.730186708534237, 47.498871010146857 ] } },
{ "type": "Feature", "properties": { "element": "node", "id": 359690871, "name": "Sonne", "amenity": "restaurant" }, "geometry": { "type": "Point", "coordinates": [ 8.729839108533648, 47.499680110147217 ] } },
{ "type": "Feature", "properties": { "element": "node", "id": 359691092, "name": "La Pergola", "amenity": "restaurant" }, "geometry": { "type": "Point", "coordinates": [ 8.72916990853286, 47.50012301014754 ] } },
{ "type": "Feature", "properties": { "element": "node", "id": 359691412, "name": "Cantinetta Bindella", "amenity": "restaurant" }, "geometry": { "type": "Point", "coordinates": [ 8.728778708532618, 47.499723810147529 ] } },
{ "type": "Feature", "properties": { "element": "node", "id": 359692073, "name": "Orsini", "amenity": "restaurant" }, "geometry": { "type": "Point", "coordinates": [ 8.72473690852909, 47.498725910148458 ] } },
{ "type": "Feature", "properties": { "element": "node", "id": 359692293, "name": "Stricker’s", "amenity": "restaurant" }, "geometry": { "type": "Point", "coordinates": [ 8.720170308524482, 47.499542010150037 ] } },
{ "type": "Feature", "properties": { "element": "node", "id": 359692440, "name": "Bellevue", "amenity": "restaurant" }, "geometry": { "type": "Point", "coordinates": [ 8.718564708522157, 47.501999610151252 ] } },
{ "type": "Feature", "properties": { "element": "node", "id": 359692842, "name": "Stadion", "amenity": "restaurant" }, "geometry": { "type": "Point", "coordinates": [ 8.718284308521763, 47.50239451015144 ] } },
{ "type": "Feature", "properties": { "element": "node", "id": 359693315, "name": "Central", "amenity": "restaurant" }, "geometry": { "type": "Point", "coordinates": [ 8.71481780851729, 47.506023810153536 ] } },
{ "type": "Feature", "properties": { "element": "node", "id": 359694751, "name": "No18", "amenity": "restaurant" }, "geometry": { "type": "Point", "coordinates": [ 8.7206222085234, 47.504229810151308 ] } },
{ "type": "Feature", "properties": { "element": "node", "id": 359694784, "name": "Tandoor", "amenity": "restaurant" }, "geometry": { "type": "Point", "coordinates": [ 8.719543508522246, 47.504616410151748 ] } },
{ "type": "Feature", "properties": { "element": "node", "id": 359695274, "name": "Piazza", "amenity": "restaurant" }, "geometry": { "type": "Point", "coordinates": [ 8.717259508519881, 47.505204110152619 ] } },
{ "type": "Feature", "properties": { "element": "node", "id": 359701183, "name": "Äusserer Lindhof", "amenity": "restaurant" }, "geometry": { "type": "Point", "coordinates": [ 8.725396808526799, 47.507758110150931 ] } },
{ "type": "Feature", "properties": { "element": "node", "id": 360330661, "name": "Uncle 7", "amenity": "restaurant" }, "geometry": { "type": "Point", "coordinates": [ 8.533808908382452, 47.381874010168062 ] } },
{ "type": "Feature", "properties": { "element": "node", "id": 360330662, "name": "Vulkan", "amenity": "restaurant" }, "geometry": { "type": "Point", "coordinates": [ 8.533632908382243, 47.381998210168106 ] } },
{ "type": "Feature", "properties": { "element": "node", "id": 360699828, "name": "Tröpfli", "amenity": "restaurant" }, "geometry": { "type": "Point", "coordinates": [ 8.524811008353092, 47.448244810191625 ] } },
{ "type": "Feature", "properties": { "element": "node", "id": 361158857, "name": "Bäckerei-Café Betschart", "amenity": "restaurant" }, "geometry": { "type": "Point", "coordinates": [ 8.468242708338877, 47.315384110165162 ] } },
{ "type": "Feature", "properties": { "element": "node", "id": 362926817, "name": "Restaurant B", "amenity": "restaurant" }, "geometry": { "type": "Point", "coordinates": [ 8.524436408374619, 47.37774671016939 ] } },
{ "type": "Feature", "properties": { "element": "node", "id": 364410129, "name": "Plüsch", "amenity": "cafe" }, "geometry": { "type": "Point", "coordinates": [ 8.516336308368723, 47.371335110169696 ] } },
{ "type": "Feature", "properties": { "element": "node", "id": 364541889, "name": "Santa Lucia Subito", "amenity": "restaurant" }, "geometry": { "type": "Point", "coordinates": [ 8.508447208356875, 47.384859310176324 ] } },
{ "type": "Feature", "properties": { "element": "node", "id": 365838427, "name": "Pizzeria Corallo", "amenity": "restaurant" }, "geometry": { "type": "Point", "coordinates": [ 8.541459608388438, 47.386539810167292 ] } },
{ "type": "Feature", "properties": { "element": "node", "id": 365838929, "name": "Kreis 6", "amenity": "restaurant" }, "geometry": { "type": "Point", "coordinates": [ 8.545285108392289, 47.386113210166087 ] } },
{ "type": "Feature", "properties": { "element": "node", "id": 365892432, "name": "Chuchi am Wasser", "amenity": "restaurant" }, "geometry": { "type": "Point", "coordinates": [ 8.539663608387784, 47.383027210166702 ] } },
{ "type": "Feature", "properties": { "element": "node", "id": 366922284, "name": "Seestern", "amenity": "restaurant" }, "geometry": { "type": "Point", "coordinates": [ 8.70163150855644, 47.343777610106791 ] } },
{ "type": "Feature", "properties": { "element": "node", "id": 366925078, "name": "Pizza Forte", "amenity": "restaurant" }, "geometry": { "type": "Point", "coordinates": [ 8.704463808558854, 47.344745910106269 ] } },
{ "type": "Feature", "properties": { "element": "node", "id": 366931645, "name": "Sternen", "amenity": "restaurant" }, "geometry": { "type": "Point", "coordinates": [ 8.645497508481276, 47.411119510144815 ] } },
{ "type": "Feature", "properties": { "element": "node", "id": 366931814, "name": "Pizzeria La Fontana", "amenity": "restaurant" }, "geometry": { "type": "Point", "coordinates": [ 8.63455820846913, 47.41626671014965 ] } },
{ "type": "Feature", "properties": { "element": "node", "id": 369825427, "name": "Salitre", "amenity": "restaurant" }, "geometry": { "type": "Point", "coordinates": [ 8.698606708505014, 47.496189510155418 ] } },
{ "type": "Feature", "properties": { "element": "node", "id": 370043588, "name": "Restaurant Waidhof", "amenity": "restaurant" }, "geometry": { "type": "Point", "coordinates": [ 8.525172308360927, 47.424246610184007 ] } },
{ "type": "Feature", "properties": { "element": "node", "id": 370529244, "name": "zum Grünen Glas", "amenity": "restaurant" }, "geometry": { "type": "Point", "coordinates": [ 8.545772208397274, 47.371533410161241 ] } },
{ "type": "Feature", "properties": { "element": "node", "id": 370529368, "name": "Piadina Bar", "amenity": "restaurant" }, "geometry": { "type": "Point", "coordinates": [ 8.543840208395032, 47.37272001016219 ] } },
{ "type": "Feature", "properties": { "element": "node", "id": 370530329, "name": "Haus zum Rüden", "amenity": "restaurant" }, "geometry": { "type": "Point", "coordinates": [ 8.543202408394986, 47.370857310161789 ] } },
{ "type": "Feature", "properties": { "element": "node", "id": 370531172, "name": "Mère Catherine", "amenity": "restaurant" }, "geometry": { "type": "Point", "coordinates": [ 8.543806008395572, 47.3708655101616 ] } },
{ "type": "Feature", "properties": { "element": "node", "id": 370657577, "name": "Le Pain Quotidien", "amenity": "cafe" }, "geometry": { "type": "Point", "coordinates": [ 8.560597908412639, 47.368370210155959 ] } },
{ "type": "Feature", "properties": { "element": "node", "id": 370787088, "name": "Erpel", "amenity": "restaurant" }, "geometry": { "type": "Point", "coordinates": [ 8.512620608397137, 47.266437010136038 ] } },
{ "type": "Feature", "properties": { "element": "node", "id": 370809277, "name": "Arcade Pizzeria", "amenity": "restaurant" }, "geometry": { "type": "Point", "coordinates": [ 8.524348608376606, 47.371054010167306 ] } },
{ "type": "Feature", "properties": { "element": "node", "id": 370822481, "name": "Weinstube 1923", "amenity": "restaurant" }, "geometry": { "type": "Point", "coordinates": [ 8.544126108394162, 47.376419910163314 ] } },
{ "type": "Feature", "properties": { "element": "node", "id": 370822646, "name": "Schurter", "amenity": "cafe" }, "geometry": { "type": "Point", "coordinates": [ 8.544037308394099, 47.376330210163317 ] } },
{ "type": "Feature", "properties": { "element": "node", "id": 370834132, "name": "La Pasta", "amenity": "restaurant" }, "geometry": { "type": "Point", "coordinates": [ 8.544109508394277, 47.376013310163195 ] } },
{ "type": "Feature", "properties": { "element": "node", "id": 370834639, "name": "Pizzeria Da Raffaele", "amenity": "restaurant" }, "geometry": { "type": "Point", "coordinates": [ 8.544126808394351, 47.375826010163109 ] } },
{ "type": "Feature", "properties": { "element": "node", "id": 370834754, "name": "N-68", "amenity": "restaurant" }, "geometry": { "type": "Point", "coordinates": [ 8.544117708394387, 47.375665610163075 ] } },
{ "type": "Feature", "properties": { "element": "node", "id": 370836433, "name": "Iberia", "amenity": "restaurant" }, "geometry": { "type": "Point", "coordinates": [ 8.543733508394254, 47.374897710162884 ] } },
{ "type": "Feature", "properties": { "element": "node", "id": 370837196, "name": "Osteria Borgo", "amenity": "restaurant" }, "geometry": { "type": "Point", "coordinates": [ 8.543737408394328, 47.37465891016285 ] } },
{ "type": "Feature", "properties": { "element": "node", "id": 370838914, "name": "Steakhouse Old Town", "amenity": "restaurant" }, "geometry": { "type": "Point", "coordinates": [ 8.543641208394533, 47.373697410162556 ] } },
{ "type": "Feature", "properties": { "element": "node", "id": 370839377, "name": "Vallocaia", "amenity": "restaurant" }, "geometry": { "type": "Point", "coordinates": [ 8.543634808394591, 47.373487410162511 ] } },
{ "type": "Feature", "properties": { "element": "node", "id": 370840367, "name": "Brasserie Louis", "amenity": "restaurant" }, "geometry": { "type": "Point", "coordinates": [ 8.543859808394966, 47.373000110162302 ] } },
{ "type": "Feature", "properties": { "element": "node", "id": 370840562, "name": "Spaghetti Factory", "amenity": "restaurant" }, "geometry": { "type": "Point", "coordinates": [ 8.543659808394796, 47.372906110162269 ] } },
{ "type": "Feature", "properties": { "element": "node", "id": 370840605, "name": "Trattoria Sempre", "amenity": "restaurant" }, "geometry": { "type": "Point", "coordinates": [ 8.543658608394773, 47.37298771016232 ] } },
{ "type": "Feature", "properties": { "element": "node", "id": 370841402, "name": "Raclette Factory", "amenity": "restaurant" }, "geometry": { "type": "Point", "coordinates": [ 8.543929908395226, 47.372380710162076 ] } },
{ "type": "Feature", "properties": { "element": "node", "id": 370841763, "name": "Rheinfelder Bierhaus", "amenity": "restaurant" }, "geometry": { "type": "Point", "coordinates": [ 8.543735208395116, 47.372130410162043 ] } },
{ "type": "Feature", "properties": { "element": "node", "id": 370843777, "name": "Café & Conditorei 1842", "amenity": "cafe" }, "geometry": { "type": "Point", "coordinates": [ 8.544369908395923, 47.371489310161628 ] } },
{ "type": "Feature", "properties": { "element": "node", "id": 370844160, "name": "Andorra", "amenity": "cafe" }, "geometry": { "type": "Point", "coordinates": [ 8.544304408395934, 47.371263610161606 ] } },
{ "type": "Feature", "properties": { "element": "node", "id": 370844293, "name": "Bodega Española", "amenity": "restaurant" }, "geometry": { "type": "Point", "coordinates": [ 8.544161108395807, 47.371221110161628 ] } },
{ "type": "Feature", "properties": { "element": "node", "id": 370844602, "name": "Cucina", "amenity": "restaurant" }, "geometry": { "type": "Point", "coordinates": [ 8.544540908396291, 47.370856010161368 ] } },
{ "type": "Feature", "properties": { "element": "node", "id": 372762306, "name": "Wöschi", "amenity": "restaurant" }, "geometry": { "type": "Point", "coordinates": [ 8.538101608399367, 47.3405767101534 ] } },
{ "type": "Feature", "properties": { "element": "node", "id": 373502518, "name": "Restaurant Sunneberg", "amenity": "restaurant" }, "geometry": { "type": "Point", "coordinates": [ 8.543926708380589, 47.419508410177102 ] } },
{ "type": "Feature", "properties": { "element": "node", "id": 373522259, "name": "Frohsinn", "amenity": "restaurant" }, "geometry": { "type": "Point", "coordinates": [ 8.719531708606338, 47.239119010066709 ] } },
{ "type": "Feature", "properties": { "element": "node", "id": 374196757, "name": "Bäckerei Fleischli", "amenity": "cafe" }, "geometry": { "type": "Point", "coordinates": [ 8.503797608319903, 47.489215310210291 ] } },
{ "type": "Feature", "properties": { "element": "node", "id": 375591911, "name": "Frohsinn", "amenity": "restaurant" }, "geometry": { "type": "Point", "coordinates": [ 8.404856508237067, 47.445662410225246 ] } },
{ "type": "Feature", "properties": { "element": "node", "id": 375592045, "name": "Restaurant alte Post", "amenity": "restaurant" }, "geometry": { "type": "Point", "coordinates": [ 8.386997308219392, 47.446274110230505 ] } },
{ "type": "Feature", "properties": { "element": "node", "id": 375592606, "name": "Gasthof Höfli", "amenity": "restaurant" }, "geometry": { "type": "Point", "coordinates": [ 8.389108608217324, 47.459767110234168 ] } },
{ "type": "Feature", "properties": { "element": "node", "id": 375598962, "name": "Waldschenke Altberg", "amenity": "restaurant" }, "geometry": { "type": "Point", "coordinates": [ 8.407000808242097, 47.436115110221664 ] } },
{ "type": "Feature", "properties": { "element": "node", "id": 377681150, "name": "Frieden", "amenity": "restaurant" }, "geometry": { "type": "Point", "coordinates": [ 8.699068008521966, 47.444753010139593 ] } },
{ "type": "Feature", "properties": { "element": "node", "id": 377681156, "name": "Wirtschaft zur Tanne", "amenity": "restaurant" }, "geometry": { "type": "Point", "coordinates": [ 8.700237408523037, 47.444903110139251 ] } },
{ "type": "Feature", "properties": { "element": "node", "id": 378321240, "name": "Vapiano", "amenity": "restaurant" }, "geometry": { "type": "Point", "coordinates": [ 8.522993908379156, 47.35848301016361 ] } },
{ "type": "Feature", "properties": { "element": "node", "id": 378321256, "name": "Hong-Kong Food Paradise", "amenity": "restaurant" }, "geometry": { "type": "Point", "coordinates": [ 8.523365208379504, 47.358522410163509 ] } },
{ "type": "Feature", "properties": { "element": "node", "id": 380488748, "name": "Punto e Pasta", "amenity": "restaurant" }, "geometry": { "type": "Point", "coordinates": [ 8.731379608535276, 47.499172510146593 ] } },
{ "type": "Feature", "properties": { "element": "node", "id": 382989332, "name": "Barnabas", "amenity": "restaurant" }, "geometry": { "type": "Point", "coordinates": [ 8.727427508532335, 47.496626010146983 ] } },
{ "type": "Feature", "properties": { "element": "node", "id": 383890175, "name": "Pieroschka", "amenity": "cafe" }, "geometry": { "type": "Point", "coordinates": [ 8.718203408604975, 47.239404310067194 ] } },
{ "type": "Feature", "properties": { "element": "node", "id": 383891068, "name": "Seeperle", "amenity": "restaurant" }, "geometry": { "type": "Point", "coordinates": [ 8.718276708605046, 47.239387910067158 ] } },
{ "type": "Feature", "properties": { "element": "node", "id": 383931304, "name": "Kunming Garten", "amenity": "restaurant" }, "geometry": { "type": "Point", "coordinates": [ 8.718393308605169, 47.239354110067133 ] } },
{ "type": "Feature", "properties": { "element": "node", "id": 383970845, "name": "Il Delfino", "amenity": "restaurant" }, "geometry": { "type": "Point", "coordinates": [ 8.722752608609248, 47.239732110066001 ] } },
{ "type": "Feature", "properties": { "element": "node", "id": 383993860, "name": "Kreuz", "amenity": "restaurant" }, "geometry": { "type": "Point", "coordinates": [ 8.735941708622843, 47.236838510061133 ] } },
{ "type": "Feature", "properties": { "element": "node", "id": 383993916, "name": "Alte Krone", "amenity": "restaurant" }, "geometry": { "type": "Point", "coordinates": [ 8.723440408609356, 47.24152251006641 ] } },
{ "type": "Feature", "properties": { "element": "node", "id": 385208811, "name": "LaSalle", "amenity": "restaurant" }, "geometry": { "type": "Point", "coordinates": [ 8.519116608366074, 47.388669510174424 ] } },
{ "type": "Feature", "properties": { "element": "node", "id": 387496840, "name": "Paprika", "amenity": "restaurant" }, "geometry": { "type": "Point", "coordinates": [ 8.50655530835693, 47.378693710174872 ] } },
{ "type": "Feature", "properties": { "element": "node", "id": 387612083, "name": "Piccolo Giardino", "amenity": "restaurant" }, "geometry": { "type": "Point", "coordinates": [ 8.525708608374911, 47.380803010170048 ] } },
{ "type": "Feature", "properties": { "element": "node", "id": 387909747, "name": "Kafischnaps", "amenity": "cafe" },